{
	"type":"FeatureCollection",
	"features":[
		{
			"type":"Feature",
			"properties":{
				"title":"Localidad",
				"description":"Acatic, 11890 habs. (2010)",
				"marker-size":"small",
				"marker-symbol":"building",
				"marker-color":"#fb6a4a",
				"name":"Acatic",
				"id":140010001,
				"p":11890,
				"lv":1
			},
			"geometry":{
				"type":"Point",
				"coordinates":[-102.905278,20.779444]
			}
		},
		{
			"type":"Feature",
			"properties":{
				"title":"Localidad",
				"description":"Agua Prieta (Tepetates), 107 habs. (2010)",
				"marker-size":"small",
				"marker-symbol":"building",
				"marker-color":"#fb6a4a",
				"name":"Agua Prieta (Tepetates)",
				"id":140010002,
				"p":107,
				"lv":1
			},
			"geometry":{
				"type":"Point",
				"coordinates":[-102.891945,20.793611]
			}
		},
		{
			"type":"Feature",
			"properties":{
				"title":"Localidad",
				"description":"Alacates, 10 habs. (2010)",
				"marker-size":"small",
				"marker-symbol":"building",
				"marker-color":"#fb6a4a",
				"name":"Alacates",
				"id":140010003,
				"p":10,
				"lv":1
			},
			"geometry":{
				"type":"Point",
				"coordinates":[-102.850834,20.823611]
			}
		},
		{
			"type":"Feature",
			"properties":{
				"title":"Localidad",
				"description":"El Bajío de los Herrera, 36 habs. (2010)",
				"marker-size":"small",
				"marker-symbol":"building",
				"marker-color":"#fb6a4a",
				"name":"El Bajío de los Herrera",
				"id":140010006,
				"p":36,
				"lv":1
			},
			"geometry":{
				"type":"Point",
				"coordinates":[-102.980278,20.728888]
			}
		},
		{
			"type":"Feature",
			"properties":{
				"title":"Localidad",
				"description":"Rancho Nuevo Calderón, 215 habs. (2010)",
				"marker-size":"small",
				"marker-symbol":"building",
				"marker-color":"#fb6a4a",
				"name":"Rancho Nuevo Calderón",
				"id":140010009,
				"p":215,
				"lv":1
			},
			"geometry":{
				"type":"Point",
				"coordinates":[-102.938612,20.698333]
			}
		},
		{
			"type":"Feature",
			"properties":{
				"title":"Localidad",
				"description":"El Capadero (San Miguel de la Loza), 27 habs. (2010)",
				"marker-size":"small",
				"marker-symbol":"building",
				"marker-color":"#fb6a4a",
				"name":"El Capadero (San Miguel de la Loza)",
				"id":140010010,
				"p":27,
				"lv":1
			},
			"geometry":{
				"type":"Point",
				"coordinates":[-102.871389,20.792777]
			}
		},
		{
			"type":"Feature",
			"properties":{
				"title":"Localidad",
				"description":"Carricillo, 36 habs. (2010)",
				"marker-size":"small",
				"marker-symbol":"building",
				"marker-color":"#fb6a4a",
				"name":"Carricillo",
				"id":140010011,
				"p":36,
				"lv":1
			},
			"geometry":{
				"type":"Point",
				"coordinates":[-102.868056,20.77]
			}
		},
		{
			"type":"Feature",
			"properties":{
				"title":"Localidad",
				"description":"Ceja de Ramblas, 85 habs. (2010)",
				"marker-size":"small",
				"marker-symbol":"building",
				"marker-color":"#fb6a4a",
				"name":"Ceja de Ramblas",
				"id":140010012,
				"p":85,
				"lv":1
			},
			"geometry":{
				"type":"Point",
				"coordinates":[-102.9925,20.728333]
			}
		},
		{
			"type":"Feature",
			"properties":{
				"title":"Localidad",
				"description":"Cofradía Grande, 81 habs. (2010)",
				"marker-size":"small",
				"marker-symbol":"building",
				"marker-color":"#fb6a4a",
				"name":"Cofradía Grande",
				"id":140010013,
				"p":81,
				"lv":1
			},
			"geometry":{
				"type":"Point",
				"coordinates":[-102.932778,20.7825]
			}
		},
		{
			"type":"Feature",
			"properties":{
				"title":"Localidad",
				"description":"El Colomo, 124 habs. (2010)",
				"marker-size":"small",
				"marker-symbol":"building",
				"marker-color":"#fb6a4a",
				"name":"El Colomo",
				"id":140010014,
				"p":124,
				"lv":1
			},
			"geometry":{
				"type":"Point",
				"coordinates":[-102.9575,20.715555]
			}
		},
		{
			"type":"Feature",
			"properties":{
				"title":"Localidad",
				"description":"Las Coronillas, 12 habs. (2010)",
				"marker-size":"small",
				"marker-symbol":"building",
				"marker-color":"#fb6a4a",
				"name":"Las Coronillas",
				"id":140010016,
				"p":12,
				"lv":1
			},
			"geometry":{
				"type":"Point",
				"coordinates":[-102.841667,20.710555]
			}
		},
		{
			"type":"Feature",
			"properties":{
				"title":"Localidad",
				"description":"La Charranga, 25 habs. (2010)",
				"marker-size":"small",
				"marker-symbol":"building",
				"marker-color":"#fb6a4a",
				"name":"La Charranga",
				"id":140010018,
				"p":25,
				"lv":1
			},
			"geometry":{
				"type":"Point",
				"coordinates":[-102.896945,20.715833]
			}
		},
		{
			"type":"Feature",
			"properties":{
				"title":"Localidad",
				"description":"El Charco del Ahogado, 6 habs. (2010)",
				"marker-size":"small",
				"marker-symbol":"building",
				"marker-color":"#fb6a4a",
				"name":"El Charco del Ahogado",
				"id":140010019,
				"p":6,
				"lv":1
			},
			"geometry":{
				"type":"Point",
				"coordinates":[-102.984445,20.785555]
			}
		},
		{
			"type":"Feature",
			"properties":{
				"title":"Localidad",
				"description":"Chiquihuitillo, 172 habs. (2010)",
				"marker-size":"small",
				"marker-symbol":"building",
				"marker-color":"#fb6a4a",
				"name":"Chiquihuitillo",
				"id":140010020,
				"p":172,
				"lv":1
			},
			"geometry":{
				"type":"Point",
				"coordinates":[-102.987223,20.745555]
			}
		},
		{
			"type":"Feature",
			"properties":{
				"title":"Localidad",
				"description":"El Chivatero, 91 habs. (2010)",
				"marker-size":"small",
				"marker-symbol":"building",
				"marker-color":"#fb6a4a",
				"name":"El Chivatero",
				"id":140010021,
				"p":91,
				"lv":1
			},
			"geometry":{
				"type":"Point",
				"coordinates":[-102.914723,20.674444]
			}
		},
		{
			"type":"Feature",
			"properties":{
				"title":"Localidad",
				"description":"La Estancia, 17 habs. (2010)",
				"marker-size":"small",
				"marker-symbol":"building",
				"marker-color":"#fb6a4a",
				"name":"La Estancia",
				"id":140010022,
				"p":17,
				"lv":1
			},
			"geometry":{
				"type":"Point",
				"coordinates":[-102.978334,20.768888]
			}
		},
		{
			"type":"Feature",
			"properties":{
				"title":"Localidad",
				"description":"La Gallarda, 12 habs. (2010)",
				"marker-size":"small",
				"marker-symbol":"building",
				"marker-color":"#fb6a4a",
				"name":"La Gallarda",
				"id":140010023,
				"p":12,
				"lv":1
			},
			"geometry":{
				"type":"Point",
				"coordinates":[-102.962778,20.808611]
			}
		},
		{
			"type":"Feature",
			"properties":{
				"title":"Localidad",
				"description":"La Gazapera, 87 habs. (2010)",
				"marker-size":"small",
				"marker-symbol":"building",
				"marker-color":"#fb6a4a",
				"name":"La Gazapera",
				"id":140010024,
				"p":87,
				"lv":1
			},
			"geometry":{
				"type":"Point",
				"coordinates":[-103.019167,20.759166]
			}
		},
		{
			"type":"Feature",
			"properties":{
				"title":"Localidad",
				"description":"Las Huertas, 1 habs. (2010)",
				"marker-size":"small",
				"marker-symbol":"building",
				"marker-color":"#fb6a4a",
				"name":"Las Huertas",
				"id":140010025,
				"p":1,
				"lv":1
			},
			"geometry":{
				"type":"Point",
				"coordinates":[-102.921667,20.846388]
			}
		},
		{
			"type":"Feature",
			"properties":{
				"title":"Localidad",
				"description":"La Infamia, 32 habs. (2010)",
				"marker-size":"small",
				"marker-symbol":"building",
				"marker-color":"#fb6a4a",
				"name":"La Infamia",
				"id":140010026,
				"p":32,
				"lv":1
			},
			"geometry":{
				"type":"Point",
				"coordinates":[-102.919723,20.759722]
			}
		},
		{
			"type":"Feature",
			"properties":{
				"title":"Localidad",
				"description":"Jagüey, 33 habs. (2010)",
				"marker-size":"small",
				"marker-symbol":"building",
				"marker-color":"#fb6a4a",
				"name":"Jagüey",
				"id":140010027,
				"p":33,
				"lv":1
			},
			"geometry":{
				"type":"Point",
				"coordinates":[-102.996389,20.7675]
			}
		},
		{
			"type":"Feature",
			"properties":{
				"title":"Localidad",
				"description":"El Jaral, 14 habs. (2010)",
				"marker-size":"small",
				"marker-symbol":"building",
				"marker-color":"#fb6a4a",
				"name":"El Jaral",
				"id":140010028,
				"p":14,
				"lv":1
			},
			"geometry":{
				"type":"Point",
				"coordinates":[-102.855278,20.795]
			}
		},
		{
			"type":"Feature",
			"properties":{
				"title":"Localidad",
				"description":"Laguna Colorada, 154 habs. (2010)",
				"marker-size":"small",
				"marker-symbol":"building",
				"marker-color":"#fb6a4a",
				"name":"Laguna Colorada",
				"id":140010029,
				"p":154,
				"lv":1
			},
			"geometry":{
				"type":"Point",
				"coordinates":[-102.831112,20.759166]
			}
		},
		{
			"type":"Feature",
			"properties":{
				"title":"Localidad",
				"description":"La Leonera, 20 habs. (2010)",
				"marker-size":"small",
				"marker-symbol":"building",
				"marker-color":"#fb6a4a",
				"name":"La Leonera",
				"id":140010030,
				"p":20,
				"lv":1
			},
			"geometry":{
				"type":"Point",
				"coordinates":[-102.91,20.824166]
			}
		},
		{
			"type":"Feature",
			"properties":{
				"title":"Localidad",
				"description":"La Leonerita, 21 habs. (2010)",
				"marker-size":"small",
				"marker-symbol":"building",
				"marker-color":"#fb6a4a",
				"name":"La Leonerita",
				"id":140010031,
				"p":21,
				"lv":1
			},
			"geometry":{
				"type":"Point",
				"coordinates":[-102.8875,20.825]
			}
		},
		{
			"type":"Feature",
			"properties":{
				"title":"Localidad",
				"description":"La Loma (La Giganta), 51 habs. (2010)",
				"marker-size":"small",
				"marker-symbol":"building",
				"marker-color":"#fb6a4a",
				"name":"La Loma (La Giganta)",
				"id":140010032,
				"p":51,
				"lv":1
			},
			"geometry":{
				"type":"Point",
				"coordinates":[-102.891667,20.775833]
			}
		},
		{
			"type":"Feature",
			"properties":{
				"title":"Localidad",
				"description":"Los Llanitos, 161 habs. (2010)",
				"marker-size":"small",
				"marker-symbol":"building",
				"marker-color":"#fb6a4a",
				"name":"Los Llanitos",
				"id":140010033,
				"p":161,
				"lv":1
			},
			"geometry":{
				"type":"Point",
				"coordinates":[-103.023612,20.753888]
			}
		},
		{
			"type":"Feature",
			"properties":{
				"title":"Localidad",
				"description":"Miraflores, 11 habs. (2010)",
				"marker-size":"small",
				"marker-symbol":"building",
				"marker-color":"#fb6a4a",
				"name":"Miraflores",
				"id":140010034,
				"p":11,
				"lv":1
			},
			"geometry":{
				"type":"Point",
				"coordinates":[-102.848889,20.716666]
			}
		},
		{
			"type":"Feature",
			"properties":{
				"title":"Localidad",
				"description":"Monte Largo, 55 habs. (2010)",
				"marker-size":"small",
				"marker-symbol":"building",
				"marker-color":"#fb6a4a",
				"name":"Monte Largo",
				"id":140010035,
				"p":55,
				"lv":1
			},
			"geometry":{
				"type":"Point",
				"coordinates":[-102.841389,20.743611]
			}
		},
		{
			"type":"Feature",
			"properties":{
				"title":"Localidad",
				"description":"Las Motas, 286 habs. (2010)",
				"marker-size":"small",
				"marker-symbol":"building",
				"marker-color":"#fb6a4a",
				"name":"Las Motas",
				"id":140010036,
				"p":286,
				"lv":1
			},
			"geometry":{
				"type":"Point",
				"coordinates":[-102.849723,20.740555]
			}
		},
		{
			"type":"Feature",
			"properties":{
				"title":"Localidad",
				"description":"La Nopalera, 35 habs. (2010)",
				"marker-size":"small",
				"marker-symbol":"building",
				"marker-color":"#fb6a4a",
				"name":"La Nopalera",
				"id":140010037,
				"p":35,
				"lv":1
			},
			"geometry":{
				"type":"Point",
				"coordinates":[-102.949167,20.783888]
			}
		},
		{
			"type":"Feature",
			"properties":{
				"title":"Localidad",
				"description":"El Ocotillo, 11 habs. (2010)",
				"marker-size":"small",
				"marker-symbol":"building",
				"marker-color":"#fb6a4a",
				"name":"El Ocotillo",
				"id":140010038,
				"p":11,
				"lv":1
			},
			"geometry":{
				"type":"Point",
				"coordinates":[-102.970834,20.764166]
			}
		},
		{
			"type":"Feature",
			"properties":{
				"title":"Localidad",
				"description":"Ojo de Agua del Colomo (La Campana), 36 habs. (2010)",
				"marker-size":"small",
				"marker-symbol":"building",
				"marker-color":"#fb6a4a",
				"name":"Ojo de Agua del Colomo (La Campana)",
				"id":140010039,
				"p":36,
				"lv":1
			},
			"geometry":{
				"type":"Point",
				"coordinates":[-102.832223,20.822777]
			}
		},
		{
			"type":"Feature",
			"properties":{
				"title":"Localidad",
				"description":"Ojo de Agua de Verdum, 41 habs. (2010)",
				"marker-size":"small",
				"marker-symbol":"building",
				"marker-color":"#fb6a4a",
				"name":"Ojo de Agua de Verdum",
				"id":140010040,
				"p":41,
				"lv":1
			},
			"geometry":{
				"type":"Point",
				"coordinates":[-102.839167,20.846944]
			}
		},
		{
			"type":"Feature",
			"properties":{
				"title":"Localidad",
				"description":"Palo Solo, 9 habs. (2010)",
				"marker-size":"small",
				"marker-symbol":"building",
				"marker-color":"#fb6a4a",
				"name":"Palo Solo",
				"id":140010041,
				"p":9,
				"lv":1
			},
			"geometry":{
				"type":"Point",
				"coordinates":[-102.889445,20.700277]
			}
		},
		{
			"type":"Feature",
			"properties":{
				"title":"Localidad",
				"description":"Las Paredes, 22 habs. (2010)",
				"marker-size":"small",
				"marker-symbol":"building",
				"marker-color":"#fb6a4a",
				"name":"Las Paredes",
				"id":140010042,
				"p":22,
				"lv":1
			},
			"geometry":{
				"type":"Point",
				"coordinates":[-102.900278,20.806944]
			}
		},
		{
			"type":"Feature",
			"properties":{
				"title":"Localidad",
				"description":"Piedra Amarilla, 80 habs. (2010)",
				"marker-size":"small",
				"marker-symbol":"building",
				"marker-color":"#fb6a4a",
				"name":"Piedra Amarilla",
				"id":140010043,
				"p":80,
				"lv":1
			},
			"geometry":{
				"type":"Point",
				"coordinates":[-102.924723,20.719722]
			}
		},
		{
			"type":"Feature",
			"properties":{
				"title":"Localidad",
				"description":"Las Pilas, 38 habs. (2010)",
				"marker-size":"small",
				"marker-symbol":"building",
				"marker-color":"#fb6a4a",
				"name":"Las Pilas",
				"id":140010044,
				"p":38,
				"lv":1
			},
			"geometry":{
				"type":"Point",
				"coordinates":[-103.015556,20.747777]
			}
		},
		{
			"type":"Feature",
			"properties":{
				"title":"Localidad",
				"description":"Pozo del Llano, 3 habs. (2010)",
				"marker-size":"small",
				"marker-symbol":"building",
				"marker-color":"#fb6a4a",
				"name":"Pozo del Llano",
				"id":140010045,
				"p":3,
				"lv":1
			},
			"geometry":{
				"type":"Point",
				"coordinates":[-102.921112,20.784444]
			}
		},
		{
			"type":"Feature",
			"properties":{
				"title":"Localidad",
				"description":"La Providencia (Crucero de Acatic), 51 habs. (2010)",
				"marker-size":"small",
				"marker-symbol":"building",
				"marker-color":"#fb6a4a",
				"name":"La Providencia (Crucero de Acatic)",
				"id":140010046,
				"p":51,
				"lv":1
			},
			"geometry":{
				"type":"Point",
				"coordinates":[-102.911945,20.723333]
			}
		},
		{
			"type":"Feature",
			"properties":{
				"title":"Localidad",
				"description":"La Quinta, 25 habs. (2010)",
				"marker-size":"small",
				"marker-symbol":"building",
				"marker-color":"#fb6a4a",
				"name":"La Quinta",
				"id":140010047,
				"p":25,
				"lv":1
			},
			"geometry":{
				"type":"Point",
				"coordinates":[-102.987223,20.768888]
			}
		},
		{
			"type":"Feature",
			"properties":{
				"title":"Localidad",
				"description":"El Ranchito, 19 habs. (2010)",
				"marker-size":"small",
				"marker-symbol":"building",
				"marker-color":"#fb6a4a",
				"name":"El Ranchito",
				"id":140010048,
				"p":19,
				"lv":1
			},
			"geometry":{
				"type":"Point",
				"coordinates":[-102.954723,20.753611]
			}
		},
		{
			"type":"Feature",
			"properties":{
				"title":"Localidad",
				"description":"Los Ranchitos, 84 habs. (2010)",
				"marker-size":"small",
				"marker-symbol":"building",
				"marker-color":"#fb6a4a",
				"name":"Los Ranchitos",
				"id":140010049,
				"p":84,
				"lv":1
			},
			"geometry":{
				"type":"Point",
				"coordinates":[-102.913889,20.803611]
			}
		},
		{
			"type":"Feature",
			"properties":{
				"title":"Localidad",
				"description":"Rancho Escondido, 2 habs. (2010)",
				"marker-size":"small",
				"marker-symbol":"building",
				"marker-color":"#fb6a4a",
				"name":"Rancho Escondido",
				"id":140010050,
				"p":2,
				"lv":1
			},
			"geometry":{
				"type":"Point",
				"coordinates":[-102.993334,20.780833]
			}
		},
		{
			"type":"Feature",
			"properties":{
				"title":"Localidad",
				"description":"Rancho Nuevo, 18 habs. (2010)",
				"marker-size":"small",
				"marker-symbol":"building",
				"marker-color":"#fb6a4a",
				"name":"Rancho Nuevo",
				"id":140010052,
				"p":18,
				"lv":1
			},
			"geometry":{
				"type":"Point",
				"coordinates":[-102.889723,20.808333]
			}
		},
		{
			"type":"Feature",
			"properties":{
				"title":"Localidad",
				"description":"El Ranero, 27 habs. (2010)",
				"marker-size":"small",
				"marker-symbol":"building",
				"marker-color":"#fb6a4a",
				"name":"El Ranero",
				"id":140010053,
				"p":27,
				"lv":1
			},
			"geometry":{
				"type":"Point",
				"coordinates":[-102.901945,20.800555]
			}
		},
		{
			"type":"Feature",
			"properties":{
				"title":"Localidad",
				"description":"El Refugio (Paredones), 2425 habs. (2010)",
				"marker-size":"small",
				"marker-symbol":"building",
				"marker-color":"#fb6a4a",
				"name":"El Refugio (Paredones)",
				"id":140010054,
				"p":2425,
				"lv":1
			},
			"geometry":{
				"type":"Point",
				"coordinates":[-102.8975,20.726666]
			}
		},
		{
			"type":"Feature",
			"properties":{
				"title":"Localidad",
				"description":"La Resolana, 218 habs. (2010)",
				"marker-size":"small",
				"marker-symbol":"building",
				"marker-color":"#fb6a4a",
				"name":"La Resolana",
				"id":140010055,
				"p":218,
				"lv":1
			},
			"geometry":{
				"type":"Point",
				"coordinates":[-102.925278,20.741388]
			}
		},
		{
			"type":"Feature",
			"properties":{
				"title":"Localidad",
				"description":"El Rincón, 14 habs. (2010)",
				"marker-size":"small",
				"marker-symbol":"building",
				"marker-color":"#fb6a4a",
				"name":"El Rincón",
				"id":140010056,
				"p":14,
				"lv":1
			},
			"geometry":{
				"type":"Point",
				"coordinates":[-102.901667,20.836111]
			}
		},
		{
			"type":"Feature",
			"properties":{
				"title":"Localidad",
				"description":"Saltillo de Arriba, 55 habs. (2010)",
				"marker-size":"small",
				"marker-symbol":"building",
				"marker-color":"#fb6a4a",
				"name":"Saltillo de Arriba",
				"id":140010057,
				"p":55,
				"lv":1
			},
			"geometry":{
				"type":"Point",
				"coordinates":[-102.826389,20.740277]
			}
		},
		{
			"type":"Feature",
			"properties":{
				"title":"Localidad",
				"description":"San Antonio, 20 habs. (2010)",
				"marker-size":"small",
				"marker-symbol":"building",
				"marker-color":"#fb6a4a",
				"name":"San Antonio",
				"id":140010059,
				"p":20,
				"lv":1
			},
			"geometry":{
				"type":"Point",
				"coordinates":[-102.8775,20.833333]
			}
		},
		{
			"type":"Feature",
			"properties":{
				"title":"Localidad",
				"description":"San Antonio de Roa, 25 habs. (2010)",
				"marker-size":"small",
				"marker-symbol":"building",
				"marker-color":"#fb6a4a",
				"name":"San Antonio de Roa",
				"id":140010060,
				"p":25,
				"lv":1
			},
			"geometry":{
				"type":"Point",
				"coordinates":[-103.001389,20.770833]
			}
		},
		{
			"type":"Feature",
			"properties":{
				"title":"Localidad",
				"description":"San Bartolo, 30 habs. (2010)",
				"marker-size":"small",
				"marker-symbol":"building",
				"marker-color":"#fb6a4a",
				"name":"San Bartolo",
				"id":140010061,
				"p":30,
				"lv":1
			},
			"geometry":{
				"type":"Point",
				"coordinates":[-102.856667,20.754444]
			}
		},
		{
			"type":"Feature",
			"properties":{
				"title":"Localidad",
				"description":"San Francisco, 61 habs. (2010)",
				"marker-size":"small",
				"marker-symbol":"building",
				"marker-color":"#fb6a4a",
				"name":"San Francisco",
				"id":140010062,
				"p":61,
				"lv":1
			},
			"geometry":{
				"type":"Point",
				"coordinates":[-102.903334,20.733888]
			}
		},
		{
			"type":"Feature",
			"properties":{
				"title":"Localidad",
				"description":"Tierras Coloradas, 1546 habs. (2010)",
				"marker-size":"small",
				"marker-symbol":"building",
				"marker-color":"#fb6a4a",
				"name":"Tierras Coloradas",
				"id":140010063,
				"p":1546,
				"lv":1
			},
			"geometry":{
				"type":"Point",
				"coordinates":[-102.860834,20.728888]
			}
		},
		{
			"type":"Feature",
			"properties":{
				"title":"Localidad",
				"description":"Santa Rita, 289 habs. (2010)",
				"marker-size":"small",
				"marker-symbol":"building",
				"marker-color":"#fb6a4a",
				"name":"Santa Rita",
				"id":140010066,
				"p":289,
				"lv":1
			},
			"geometry":{
				"type":"Point",
				"coordinates":[-103.022223,20.77]
			}
		},
		{
			"type":"Feature",
			"properties":{
				"title":"Localidad",
				"description":"El Sauz, 51 habs. (2010)",
				"marker-size":"small",
				"marker-symbol":"building",
				"marker-color":"#fb6a4a",
				"name":"El Sauz",
				"id":140010067,
				"p":51,
				"lv":1
			},
			"geometry":{
				"type":"Point",
				"coordinates":[-102.94,20.757222]
			}
		},
		{
			"type":"Feature",
			"properties":{
				"title":"Localidad",
				"description":"La Soledad, 15 habs. (2010)",
				"marker-size":"small",
				"marker-symbol":"building",
				"marker-color":"#fb6a4a",
				"name":"La Soledad",
				"id":140010068,
				"p":15,
				"lv":1
			},
			"geometry":{
				"type":"Point",
				"coordinates":[-102.828334,20.7475]
			}
		},
		{
			"type":"Feature",
			"properties":{
				"title":"Localidad",
				"description":"Las Tablas, 37 habs. (2010)",
				"marker-size":"small",
				"marker-symbol":"building",
				"marker-color":"#fb6a4a",
				"name":"Las Tablas",
				"id":140010069,
				"p":37,
				"lv":1
			},
			"geometry":{
				"type":"Point",
				"coordinates":[-103.027778,20.76]
			}
		},
		{
			"type":"Feature",
			"properties":{
				"title":"Localidad",
				"description":"El Tempisque, 52 habs. (2010)",
				"marker-size":"small",
				"marker-symbol":"building",
				"marker-color":"#fb6a4a",
				"name":"El Tempisque",
				"id":140010070,
				"p":52,
				"lv":1
			},
			"geometry":{
				"type":"Point",
				"coordinates":[-103.0125,20.771111]
			}
		},
		{
			"type":"Feature",
			"properties":{
				"title":"Localidad",
				"description":"El Tepamal, 10 habs. (2010)",
				"marker-size":"small",
				"marker-symbol":"building",
				"marker-color":"#fb6a4a",
				"name":"El Tepamal",
				"id":140010071,
				"p":10,
				"lv":1
			},
			"geometry":{
				"type":"Point",
				"coordinates":[-102.916667,20.696111]
			}
		},
		{
			"type":"Feature",
			"properties":{
				"title":"Localidad",
				"description":"El Tepame, 84 habs. (2010)",
				"marker-size":"small",
				"marker-symbol":"building",
				"marker-color":"#fb6a4a",
				"name":"El Tepame",
				"id":140010072,
				"p":84,
				"lv":1
			},
			"geometry":{
				"type":"Point",
				"coordinates":[-102.825278,20.753333]
			}
		},
		{
			"type":"Feature",
			"properties":{
				"title":"Localidad",
				"description":"El Tepehuaje, 53 habs. (2010)",
				"marker-size":"small",
				"marker-symbol":"building",
				"marker-color":"#fb6a4a",
				"name":"El Tepehuaje",
				"id":140010073,
				"p":53,
				"lv":1
			},
			"geometry":{
				"type":"Point",
				"coordinates":[-103.004723,20.7475]
			}
		},
		{
			"type":"Feature",
			"properties":{
				"title":"Localidad",
				"description":"El Tepozán, 38 habs. (2010)",
				"marker-size":"small",
				"marker-symbol":"building",
				"marker-color":"#fb6a4a",
				"name":"El Tepozán",
				"id":140010074,
				"p":38,
				"lv":1
			},
			"geometry":{
				"type":"Point",
				"coordinates":[-102.906945,20.760277]
			}
		},
		{
			"type":"Feature",
			"properties":{
				"title":"Localidad",
				"description":"Tequililla, 329 habs. (2010)",
				"marker-size":"small",
				"marker-symbol":"building",
				"marker-color":"#fb6a4a",
				"name":"Tequililla",
				"id":140010075,
				"p":329,
				"lv":1
			},
			"geometry":{
				"type":"Point",
				"coordinates":[-102.837778,20.796388]
			}
		},
		{
			"type":"Feature",
			"properties":{
				"title":"Localidad",
				"description":"Terrero, 1 habs. (2010)",
				"marker-size":"small",
				"marker-symbol":"building",
				"marker-color":"#fb6a4a",
				"name":"Terrero",
				"id":140010076,
				"p":1,
				"lv":1
			},
			"geometry":{
				"type":"Point",
				"coordinates":[-102.900278,20.840555]
			}
		},
		{
			"type":"Feature",
			"properties":{
				"title":"Localidad",
				"description":"El Tlalcoyote, 24 habs. (2010)",
				"marker-size":"small",
				"marker-symbol":"building",
				"marker-color":"#fb6a4a",
				"name":"El Tlalcoyote",
				"id":140010078,
				"p":24,
				"lv":1
			},
			"geometry":{
				"type":"Point",
				"coordinates":[-102.970556,20.739444]
			}
		},
		{
			"type":"Feature",
			"properties":{
				"title":"Localidad",
				"description":"Las Trojes, 90 habs. (2010)",
				"marker-size":"small",
				"marker-symbol":"building",
				"marker-color":"#fb6a4a",
				"name":"Las Trojes",
				"id":140010079,
				"p":90,
				"lv":1
			},
			"geometry":{
				"type":"Point",
				"coordinates":[-102.869167,20.708333]
			}
		},
		{
			"type":"Feature",
			"properties":{
				"title":"Localidad",
				"description":"El Venado, 12 habs. (2010)",
				"marker-size":"small",
				"marker-symbol":"building",
				"marker-color":"#fb6a4a",
				"name":"El Venado",
				"id":140010081,
				"p":12,
				"lv":1
			},
			"geometry":{
				"type":"Point",
				"coordinates":[-102.943334,20.806666]
			}
		},
		{
			"type":"Feature",
			"properties":{
				"title":"Localidad",
				"description":"Las Víboras, 46 habs. (2010)",
				"marker-size":"small",
				"marker-symbol":"building",
				"marker-color":"#fb6a4a",
				"name":"Las Víboras",
				"id":140010084,
				"p":46,
				"lv":1
			},
			"geometry":{
				"type":"Point",
				"coordinates":[-102.911945,20.740555]
			}
		},
		{
			"type":"Feature",
			"properties":{
				"title":"Localidad",
				"description":"El Paraíso, 28 habs. (2010)",
				"marker-size":"small",
				"marker-symbol":"building",
				"marker-color":"#fb6a4a",
				"name":"El Paraíso",
				"id":140010086,
				"p":28,
				"lv":1
			},
			"geometry":{
				"type":"Point",
				"coordinates":[-102.843056,20.744166]
			}
		},
		{
			"type":"Feature",
			"properties":{
				"title":"Localidad",
				"description":"Terrerito, 6 habs. (2010)",
				"marker-size":"small",
				"marker-symbol":"building",
				"marker-color":"#fb6a4a",
				"name":"Terrerito",
				"id":140010087,
				"p":6,
				"lv":1
			},
			"geometry":{
				"type":"Point",
				"coordinates":[-102.823334,20.800833]
			}
		},
		{
			"type":"Feature",
			"properties":{
				"title":"Localidad",
				"description":"Crucero Viejo Acatic, 32 habs. (2010)",
				"marker-size":"small",
				"marker-symbol":"building",
				"marker-color":"#fb6a4a",
				"name":"Crucero Viejo Acatic",
				"id":140010088,
				"p":32,
				"lv":1
			},
			"geometry":{
				"type":"Point",
				"coordinates":[-102.919723,20.716944]
			}
		},
		{
			"type":"Feature",
			"properties":{
				"title":"Localidad",
				"description":"San José, 31 habs. (2010)",
				"marker-size":"small",
				"marker-symbol":"building",
				"marker-color":"#fb6a4a",
				"name":"San José",
				"id":140010094,
				"p":31,
				"lv":1
			},
			"geometry":{
				"type":"Point",
				"coordinates":[-102.893056,20.746944]
			}
		},
		{
			"type":"Feature",
			"properties":{
				"title":"Localidad",
				"description":"Saltillo de Abajo, 191 habs. (2010)",
				"marker-size":"small",
				"marker-symbol":"building",
				"marker-color":"#fb6a4a",
				"name":"Saltillo de Abajo",
				"id":140010102,
				"p":191,
				"lv":1
			},
			"geometry":{
				"type":"Point",
				"coordinates":[-102.832223,20.724166]
			}
		},
		{
			"type":"Feature",
			"properties":{
				"title":"Localidad",
				"description":"Codornices, 50 habs. (2010)",
				"marker-size":"small",
				"marker-symbol":"building",
				"marker-color":"#fb6a4a",
				"name":"Codornices",
				"id":140010104,
				"p":50,
				"lv":1
			},
			"geometry":{
				"type":"Point",
				"coordinates":[-102.916112,20.716944]
			}
		},
		{
			"type":"Feature",
			"properties":{
				"title":"Localidad",
				"description":"La Sosa, 2 habs. (2010)",
				"marker-size":"small",
				"marker-symbol":"building",
				"marker-color":"#fb6a4a",
				"name":"La Sosa",
				"id":140010106,
				"p":2,
				"lv":1
			},
			"geometry":{
				"type":"Point",
				"coordinates":[-102.917223,20.840555]
			}
		},
		{
			"type":"Feature",
			"properties":{
				"title":"Localidad",
				"description":"Agropecuaria Calderón, 53 habs. (2010)",
				"marker-size":"small",
				"marker-symbol":"building",
				"marker-color":"#fb6a4a",
				"name":"Agropecuaria Calderón",
				"id":140010107,
				"p":53,
				"lv":1
			},
			"geometry":{
				"type":"Point",
				"coordinates":[-102.9575,20.702222]
			}
		},
		{
			"type":"Feature",
			"properties":{
				"title":"Localidad",
				"description":"Las Amapolas, 7 habs. (2010)",
				"marker-size":"small",
				"marker-symbol":"building",
				"marker-color":"#fb6a4a",
				"name":"Las Amapolas",
				"id":140010108,
				"p":7,
				"lv":1
			},
			"geometry":{
				"type":"Point",
				"coordinates":[-102.885834,20.780833]
			}
		},
		{
			"type":"Feature",
			"properties":{
				"title":"Localidad",
				"description":"Los Dos Pilares, 15 habs. (2010)",
				"marker-size":"small",
				"marker-symbol":"building",
				"marker-color":"#fb6a4a",
				"name":"Los Dos Pilares",
				"id":140010109,
				"p":15,
				"lv":1
			},
			"geometry":{
				"type":"Point",
				"coordinates":[-102.923334,20.777777]
			}
		},
		{
			"type":"Feature",
			"properties":{
				"title":"Localidad",
				"description":"Las Barranquitas, 14 habs. (2010)",
				"marker-size":"small",
				"marker-symbol":"building",
				"marker-color":"#fb6a4a",
				"name":"Las Barranquitas",
				"id":140010111,
				"p":14,
				"lv":1
			},
			"geometry":{
				"type":"Point",
				"coordinates":[-102.832223,20.8425]
			}
		},
		{
			"type":"Feature",
			"properties":{
				"title":"Localidad",
				"description":"La Calesa (Plan de Calderón), 3 habs. (2010)",
				"marker-size":"small",
				"marker-symbol":"building",
				"marker-color":"#fb6a4a",
				"name":"La Calesa (Plan de Calderón)",
				"id":140010112,
				"p":3,
				"lv":1
			},
			"geometry":{
				"type":"Point",
				"coordinates":[-102.92,20.701944]
			}
		},
		{
			"type":"Feature",
			"properties":{
				"title":"Localidad",
				"description":"Tepatitlán [Club Cazadores], 4 habs. (2010)",
				"marker-size":"small",
				"marker-symbol":"building",
				"marker-color":"#fb6a4a",
				"name":"Tepatitlán [Club Cazadores]",
				"id":140010114,
				"p":4,
				"lv":1
			},
			"geometry":{
				"type":"Point",
				"coordinates":[-102.915,20.709166]
			}
		},
		{
			"type":"Feature",
			"properties":{
				"title":"Localidad",
				"description":"La Copetona, 25 habs. (2010)",
				"marker-size":"small",
				"marker-symbol":"building",
				"marker-color":"#fb6a4a",
				"name":"La Copetona",
				"id":140010116,
				"p":25,
				"lv":1
			},
			"geometry":{
				"type":"Point",
				"coordinates":[-102.931945,20.761111]
			}
		},
		{
			"type":"Feature",
			"properties":{
				"title":"Localidad",
				"description":"La Esperanza, 28 habs. (2010)",
				"marker-size":"small",
				"marker-symbol":"building",
				"marker-color":"#fb6a4a",
				"name":"La Esperanza",
				"id":140010118,
				"p":28,
				"lv":1
			},
			"geometry":{
				"type":"Point",
				"coordinates":[-102.847778,20.745277]
			}
		},
		{
			"type":"Feature",
			"properties":{
				"title":"Localidad",
				"description":"Genpro [La Lechonera], 2 habs. (2010)",
				"marker-size":"small",
				"marker-symbol":"building",
				"marker-color":"#fb6a4a",
				"name":"Genpro [La Lechonera]",
				"id":140010119,
				"p":2,
				"lv":1
			},
			"geometry":{
				"type":"Point",
				"coordinates":[-102.918889,20.699166]
			}
		},
		{
			"type":"Feature",
			"properties":{
				"title":"Localidad",
				"description":"Verde Valle [Granja], 50 habs. (2010)",
				"marker-size":"small",
				"marker-symbol":"building",
				"marker-color":"#fb6a4a",
				"name":"Verde Valle [Granja]",
				"id":140010120,
				"p":50,
				"lv":1
			},
			"geometry":{
				"type":"Point",
				"coordinates":[-102.95,20.705555]
			}
		},
		{
			"type":"Feature",
			"properties":{
				"title":"Localidad",
				"description":"El Refugio [Granja], 6 habs. (2010)",
				"marker-size":"small",
				"marker-symbol":"building",
				"marker-color":"#fb6a4a",
				"name":"El Refugio [Granja]",
				"id":140010121,
				"p":6,
				"lv":1
			},
			"geometry":{
				"type":"Point",
				"coordinates":[-102.886945,20.708888]
			}
		},
		{
			"type":"Feature",
			"properties":{
				"title":"Localidad",
				"description":"Ninguno [Granja Rancho Nuevo], 7 habs. (2010)",
				"marker-size":"small",
				"marker-symbol":"building",
				"marker-color":"#fb6a4a",
				"name":"Ninguno [Granja Rancho Nuevo]",
				"id":140010122,
				"p":7,
				"lv":1
			},
			"geometry":{
				"type":"Point",
				"coordinates":[-102.889723,20.732777]
			}
		},
		{
			"type":"Feature",
			"properties":{
				"title":"Localidad",
				"description":"La Joya (Avícola La Joya), 91 habs. (2010)",
				"marker-size":"small",
				"marker-symbol":"building",
				"marker-color":"#fb6a4a",
				"name":"La Joya (Avícola La Joya)",
				"id":140010123,
				"p":91,
				"lv":1
			},
			"geometry":{
				"type":"Point",
				"coordinates":[-102.988056,20.691944]
			}
		},
		{
			"type":"Feature",
			"properties":{
				"title":"Localidad",
				"description":"La Majada, 18 habs. (2010)",
				"marker-size":"small",
				"marker-symbol":"building",
				"marker-color":"#fb6a4a",
				"name":"La Majada",
				"id":140010126,
				"p":18,
				"lv":1
			},
			"geometry":{
				"type":"Point",
				"coordinates":[-103.015278,20.782777]
			}
		},
		{
			"type":"Feature",
			"properties":{
				"title":"Localidad",
				"description":"La Ordeña, 19 habs. (2010)",
				"marker-size":"small",
				"marker-symbol":"building",
				"marker-color":"#fb6a4a",
				"name":"La Ordeña",
				"id":140010129,
				"p":19,
				"lv":1
			},
			"geometry":{
				"type":"Point",
				"coordinates":[-102.917778,20.702777]
			}
		},
		{
			"type":"Feature",
			"properties":{
				"title":"Localidad",
				"description":"El Pitahayo, 20 habs. (2010)",
				"marker-size":"small",
				"marker-symbol":"building",
				"marker-color":"#fb6a4a",
				"name":"El Pitahayo",
				"id":140010131,
				"p":20,
				"lv":1
			},
			"geometry":{
				"type":"Point",
				"coordinates":[-103.003889,20.782777]
			}
		},
		{
			"type":"Feature",
			"properties":{
				"title":"Localidad",
				"description":"La Presa de la Joya, 5 habs. (2010)",
				"marker-size":"small",
				"marker-symbol":"building",
				"marker-color":"#fb6a4a",
				"name":"La Presa de la Joya",
				"id":140010132,
				"p":5,
				"lv":1
			},
			"geometry":{
				"type":"Point",
				"coordinates":[-102.973612,20.713055]
			}
		},
		{
			"type":"Feature",
			"properties":{
				"title":"Localidad",
				"description":"El Saltillo, 7 habs. (2010)",
				"marker-size":"small",
				"marker-symbol":"building",
				"marker-color":"#fb6a4a",
				"name":"El Saltillo",
				"id":140010135,
				"p":7,
				"lv":1
			},
			"geometry":{
				"type":"Point",
				"coordinates":[-102.916667,20.788333]
			}
		},
		{
			"type":"Feature",
			"properties":{
				"title":"Localidad",
				"description":"Tierra Blanca, 5 habs. (2010)",
				"marker-size":"small",
				"marker-symbol":"building",
				"marker-color":"#fb6a4a",
				"name":"Tierra Blanca",
				"id":140010138,
				"p":5,
				"lv":1
			},
			"geometry":{
				"type":"Point",
				"coordinates":[-102.918334,20.6975]
			}
		},
		{
			"type":"Feature",
			"properties":{
				"title":"Localidad",
				"description":"Las Tortugas, 41 habs. (2010)",
				"marker-size":"small",
				"marker-symbol":"building",
				"marker-color":"#fb6a4a",
				"name":"Las Tortugas",
				"id":140010139,
				"p":41,
				"lv":1
			},
			"geometry":{
				"type":"Point",
				"coordinates":[-102.969445,20.708611]
			}
		},
		{
			"type":"Feature",
			"properties":{
				"title":"Localidad",
				"description":"El Roble, 5 habs. (2010)",
				"marker-size":"small",
				"marker-symbol":"building",
				"marker-color":"#fb6a4a",
				"name":"El Roble",
				"id":140010140,
				"p":5,
				"lv":1
			},
			"geometry":{
				"type":"Point",
				"coordinates":[-102.842778,20.839444]
			}
		},
		{
			"type":"Feature",
			"properties":{
				"title":"Localidad",
				"description":"San Pablo, 141 habs. (2010)",
				"marker-size":"small",
				"marker-symbol":"building",
				"marker-color":"#fb6a4a",
				"name":"San Pablo",
				"id":140010141,
				"p":141,
				"lv":1
			},
			"geometry":{
				"type":"Point",
				"coordinates":[-102.8125,20.830555]
			}
		},
		{
			"type":"Feature",
			"properties":{
				"title":"Localidad",
				"description":"Acatic (Colonia La Prepa), 402 habs. (2010)",
				"marker-size":"small",
				"marker-symbol":"building",
				"marker-color":"#fb6a4a",
				"name":"Acatic (Colonia La Prepa)",
				"id":140010142,
				"p":402,
				"lv":1
			},
			"geometry":{
				"type":"Point",
				"coordinates":[-102.911389,20.794166]
			}
		},
		{
			"type":"Feature",
			"properties":{
				"title":"Localidad",
				"description":"Amatitán, 11006 habs. (2010)",
				"marker-size":"small",
				"marker-symbol":"building",
				"marker-color":"#fb6a4a",
				"name":"Amatitán",
				"id":140050001,
				"p":11006,
				"lv":1
			},
			"geometry":{
				"type":"Point",
				"coordinates":[-103.73,20.835]
			}
		},
		{
			"type":"Feature",
			"properties":{
				"title":"Localidad",
				"description":"Agua Fría, 208 habs. (2010)",
				"marker-size":"small",
				"marker-symbol":"building",
				"marker-color":"#fb6a4a",
				"name":"Agua Fría",
				"id":140050003,
				"p":208,
				"lv":1
			},
			"geometry":{
				"type":"Point",
				"coordinates":[-103.719445,20.903333]
			}
		},
		{
			"type":"Feature",
			"properties":{
				"title":"Localidad",
				"description":"Agua Prieta, 95 habs. (2010)",
				"marker-size":"small",
				"marker-symbol":"building",
				"marker-color":"#fb6a4a",
				"name":"Agua Prieta",
				"id":140050004,
				"p":95,
				"lv":1
			},
			"geometry":{
				"type":"Point",
				"coordinates":[-103.708056,20.883611]
			}
		},
		{
			"type":"Feature",
			"properties":{
				"title":"Localidad",
				"description":"El Amarillo, 105 habs. (2010)",
				"marker-size":"small",
				"marker-symbol":"building",
				"marker-color":"#fb6a4a",
				"name":"El Amarillo",
				"id":140050005,
				"p":105,
				"lv":1
			},
			"geometry":{
				"type":"Point",
				"coordinates":[-103.725,20.913333]
			}
		},
		{
			"type":"Feature",
			"properties":{
				"title":"Localidad",
				"description":"La Conchilla, 114 habs. (2010)",
				"marker-size":"small",
				"marker-symbol":"building",
				"marker-color":"#fb6a4a",
				"name":"La Conchilla",
				"id":140050007,
				"p":114,
				"lv":1
			},
			"geometry":{
				"type":"Point",
				"coordinates":[-103.738612,20.905277]
			}
		},
		{
			"type":"Feature",
			"properties":{
				"title":"Localidad",
				"description":"Santa Rosa [Campamento Cfe], 54 habs. (2010)",
				"marker-size":"small",
				"marker-symbol":"building",
				"marker-color":"#fb6a4a",
				"name":"Santa Rosa [Campamento Cfe]",
				"id":140050008,
				"p":54,
				"lv":1
			},
			"geometry":{
				"type":"Point",
				"coordinates":[-103.721667,20.911111]
			}
		},
		{
			"type":"Feature",
			"properties":{
				"title":"Localidad",
				"description":"La Capilla, 52 habs. (2010)",
				"marker-size":"small",
				"marker-symbol":"building",
				"marker-color":"#fb6a4a",
				"name":"La Capilla",
				"id":140050009,
				"p":52,
				"lv":1
			},
			"geometry":{
				"type":"Point",
				"coordinates":[-103.740834,20.896944]
			}
		},
		{
			"type":"Feature",
			"properties":{
				"title":"Localidad",
				"description":"El Cerrito, 113 habs. (2010)",
				"marker-size":"small",
				"marker-symbol":"building",
				"marker-color":"#fb6a4a",
				"name":"El Cerrito",
				"id":140050010,
				"p":113,
				"lv":1
			},
			"geometry":{
				"type":"Point",
				"coordinates":[-103.748889,20.901666]
			}
		},
		{
			"type":"Feature",
			"properties":{
				"title":"Localidad",
				"description":"La Cofradía, 8 habs. (2010)",
				"marker-size":"small",
				"marker-symbol":"building",
				"marker-color":"#fb6a4a",
				"name":"La Cofradía",
				"id":140050013,
				"p":8,
				"lv":1
			},
			"geometry":{
				"type":"Point",
				"coordinates":[-103.681945,20.835277]
			}
		},
		{
			"type":"Feature",
			"properties":{
				"title":"Localidad",
				"description":"Chome (Achío), 190 habs. (2010)",
				"marker-size":"small",
				"marker-symbol":"building",
				"marker-color":"#fb6a4a",
				"name":"Chome (Achío)",
				"id":140050015,
				"p":190,
				"lv":1
			},
			"geometry":{
				"type":"Point",
				"coordinates":[-103.735278,20.895277]
			}
		},
		{
			"type":"Feature",
			"properties":{
				"title":"Localidad",
				"description":"La Mata, 175 habs. (2010)",
				"marker-size":"small",
				"marker-symbol":"building",
				"marker-color":"#fb6a4a",
				"name":"La Mata",
				"id":140050020,
				"p":175,
				"lv":1
			},
			"geometry":{
				"type":"Point",
				"coordinates":[-103.748889,20.895277]
			}
		},
		{
			"type":"Feature",
			"properties":{
				"title":"Localidad",
				"description":"Miravalle, 3 habs. (2010)",
				"marker-size":"small",
				"marker-symbol":"building",
				"marker-color":"#fb6a4a",
				"name":"Miravalle",
				"id":140050022,
				"p":3,
				"lv":1
			},
			"geometry":{
				"type":"Point",
				"coordinates":[-103.746945,20.850833]
			}
		},
		{
			"type":"Feature",
			"properties":{
				"title":"Localidad",
				"description":"Rancho Viejo, 20 habs. (2010)",
				"marker-size":"small",
				"marker-symbol":"building",
				"marker-color":"#fb6a4a",
				"name":"Rancho Viejo",
				"id":140050026,
				"p":20,
				"lv":1
			},
			"geometry":{
				"type":"Point",
				"coordinates":[-103.711945,20.909166]
			}
		},
		{
			"type":"Feature",
			"properties":{
				"title":"Localidad",
				"description":"Santa Rita (El Tecuane), 10 habs. (2010)",
				"marker-size":"small",
				"marker-symbol":"building",
				"marker-color":"#fb6a4a",
				"name":"Santa Rita (El Tecuane)",
				"id":140050029,
				"p":10,
				"lv":1
			},
			"geometry":{
				"type":"Point",
				"coordinates":[-103.717778,20.874444]
			}
		},
		{
			"type":"Feature",
			"properties":{
				"title":"Localidad",
				"description":"Santiaguito, 1321 habs. (2010)",
				"marker-size":"small",
				"marker-symbol":"building",
				"marker-color":"#fb6a4a",
				"name":"Santiaguito",
				"id":140050031,
				"p":1321,
				"lv":1
			},
			"geometry":{
				"type":"Point",
				"coordinates":[-103.726112,20.778333]
			}
		},
		{
			"type":"Feature",
			"properties":{
				"title":"Localidad",
				"description":"Tateposco, 7 habs. (2010)",
				"marker-size":"small",
				"marker-symbol":"building",
				"marker-color":"#fb6a4a",
				"name":"Tateposco",
				"id":140050032,
				"p":7,
				"lv":1
			},
			"geometry":{
				"type":"Point",
				"coordinates":[-103.718612,20.836666]
			}
		},
		{
			"type":"Feature",
			"properties":{
				"title":"Localidad",
				"description":"Tepecoste, 2 habs. (2010)",
				"marker-size":"small",
				"marker-symbol":"building",
				"marker-color":"#fb6a4a",
				"name":"Tepecoste",
				"id":140050034,
				"p":2,
				"lv":1
			},
			"geometry":{
				"type":"Point",
				"coordinates":[-103.758889,20.846111]
			}
		},
		{
			"type":"Feature",
			"properties":{
				"title":"Localidad",
				"description":"Tepetates, 238 habs. (2010)",
				"marker-size":"small",
				"marker-symbol":"building",
				"marker-color":"#fb6a4a",
				"name":"Tepetates",
				"id":140050035,
				"p":238,
				"lv":1
			},
			"geometry":{
				"type":"Point",
				"coordinates":[-103.660556,20.838888]
			}
		},
		{
			"type":"Feature",
			"properties":{
				"title":"Localidad",
				"description":"El Tizate, 19 habs. (2010)",
				"marker-size":"small",
				"marker-symbol":"building",
				"marker-color":"#fb6a4a",
				"name":"El Tizate",
				"id":140050036,
				"p":19,
				"lv":1
			},
			"geometry":{
				"type":"Point",
				"coordinates":[-103.654723,20.832222]
			}
		},
		{
			"type":"Feature",
			"properties":{
				"title":"Localidad",
				"description":"La Villa de Cuerámbaro, 244 habs. (2010)",
				"marker-size":"small",
				"marker-symbol":"building",
				"marker-color":"#fb6a4a",
				"name":"La Villa de Cuerámbaro",
				"id":140050039,
				"p":244,
				"lv":1
			},
			"geometry":{
				"type":"Point",
				"coordinates":[-103.662223,20.844166]
			}
		},
		{
			"type":"Feature",
			"properties":{
				"title":"Localidad",
				"description":"La Villa, 11 habs. (2010)",
				"marker-size":"small",
				"marker-symbol":"building",
				"marker-color":"#fb6a4a",
				"name":"La Villa",
				"id":140050040,
				"p":11,
				"lv":1
			},
			"geometry":{
				"type":"Point",
				"coordinates":[-103.734167,20.785277]
			}
		},
		{
			"type":"Feature",
			"properties":{
				"title":"Localidad",
				"description":"Las Escobas, 1 habs. (2010)",
				"marker-size":"small",
				"marker-symbol":"building",
				"marker-color":"#fb6a4a",
				"name":"Las Escobas",
				"id":140050043,
				"p":1,
				"lv":1
			},
			"geometry":{
				"type":"Point",
				"coordinates":[-103.716389,20.883055]
			}
		},
		{
			"type":"Feature",
			"properties":{
				"title":"Localidad",
				"description":"La Quebradora, 91 habs. (2010)",
				"marker-size":"small",
				"marker-symbol":"building",
				"marker-color":"#fb6a4a",
				"name":"La Quebradora",
				"id":140050045,
				"p":91,
				"lv":1
			},
			"geometry":{
				"type":"Point",
				"coordinates":[-103.718334,20.906111]
			}
		},
		{
			"type":"Feature",
			"properties":{
				"title":"Localidad",
				"description":"Carlos Ravelero, 9 habs. (2010)",
				"marker-size":"small",
				"marker-symbol":"building",
				"marker-color":"#fb6a4a",
				"name":"Carlos Ravelero",
				"id":140050053,
				"p":9,
				"lv":1
			},
			"geometry":{
				"type":"Point",
				"coordinates":[-103.742778,20.839722]
			}
		},
		{
			"type":"Feature",
			"properties":{
				"title":"Localidad",
				"description":"Cerro de la Tortuga, 30 habs. (2010)",
				"marker-size":"small",
				"marker-symbol":"building",
				"marker-color":"#fb6a4a",
				"name":"Cerro de la Tortuga",
				"id":140050055,
				"p":30,
				"lv":1
			},
			"geometry":{
				"type":"Point",
				"coordinates":[-103.741667,20.832222]
			}
		},
		{
			"type":"Feature",
			"properties":{
				"title":"Localidad",
				"description":"El Coco, 22 habs. (2010)",
				"marker-size":"small",
				"marker-symbol":"building",
				"marker-color":"#fb6a4a",
				"name":"El Coco",
				"id":140050056,
				"p":22,
				"lv":1
			},
			"geometry":{
				"type":"Point",
				"coordinates":[-103.750556,20.9]
			}
		},
		{
			"type":"Feature",
			"properties":{
				"title":"Localidad",
				"description":"El Crucero (Crucero de la Vía), 2 habs. (2010)",
				"marker-size":"small",
				"marker-symbol":"building",
				"marker-color":"#fb6a4a",
				"name":"El Crucero (Crucero de la Vía)",
				"id":140050057,
				"p":2,
				"lv":1
			},
			"geometry":{
				"type":"Point",
				"coordinates":[-103.766945,20.860833]
			}
		},
		{
			"type":"Feature",
			"properties":{
				"title":"Localidad",
				"description":"La Mesa, 3 habs. (2010)",
				"marker-size":"small",
				"marker-symbol":"building",
				"marker-color":"#fb6a4a",
				"name":"La Mesa",
				"id":140050064,
				"p":3,
				"lv":1
			},
			"geometry":{
				"type":"Point",
				"coordinates":[-103.762778,20.844722]
			}
		},
		{
			"type":"Feature",
			"properties":{
				"title":"Localidad",
				"description":"El Mirador, 10 habs. (2010)",
				"marker-size":"small",
				"marker-symbol":"building",
				"marker-color":"#fb6a4a",
				"name":"El Mirador",
				"id":140050065,
				"p":10,
				"lv":1
			},
			"geometry":{
				"type":"Point",
				"coordinates":[-103.720834,20.832777]
			}
		},
		{
			"type":"Feature",
			"properties":{
				"title":"Localidad",
				"description":"Las Peinadas, 6 habs. (2010)",
				"marker-size":"small",
				"marker-symbol":"building",
				"marker-color":"#fb6a4a",
				"name":"Las Peinadas",
				"id":140050067,
				"p":6,
				"lv":1
			},
			"geometry":{
				"type":"Point",
				"coordinates":[-103.721945,20.835]
			}
		},
		{
			"type":"Feature",
			"properties":{
				"title":"Localidad",
				"description":"Rancho El Agostadero, 5 habs. (2010)",
				"marker-size":"small",
				"marker-symbol":"building",
				"marker-color":"#fb6a4a",
				"name":"Rancho El Agostadero",
				"id":140050071,
				"p":5,
				"lv":1
			},
			"geometry":{
				"type":"Point",
				"coordinates":[-103.715278,20.794166]
			}
		},
		{
			"type":"Feature",
			"properties":{
				"title":"Localidad",
				"description":"La Cantera, 474 habs. (2010)",
				"marker-size":"small",
				"marker-symbol":"building",
				"marker-color":"#fb6a4a",
				"name":"La Cantera",
				"id":140050074,
				"p":474,
				"lv":1
			},
			"geometry":{
				"type":"Point",
				"coordinates":[-103.7325,20.847777]
			}
		},
		{
			"type":"Feature",
			"properties":{
				"title":"Localidad",
				"description":"Arandas, 52175 habs. (2010)",
				"marker-size":"small",
				"marker-symbol":"building",
				"marker-color":"#fb6a4a",
				"name":"Arandas",
				"id":140080001,
				"p":52175,
				"lv":1
			},
			"geometry":{
				"type":"Point",
				"coordinates":[-102.340278,20.705555]
			}
		},
		{
			"type":"Feature",
			"properties":{
				"title":"Localidad",
				"description":"Los Agritos, 83 habs. (2010)",
				"marker-size":"small",
				"marker-symbol":"building",
				"marker-color":"#fb6a4a",
				"name":"Los Agritos",
				"id":140080002,
				"p":83,
				"lv":1
			},
			"geometry":{
				"type":"Point",
				"coordinates":[-102.402223,20.821388]
			}
		},
		{
			"type":"Feature",
			"properties":{
				"title":"Localidad",
				"description":"Chicos, 7 habs. (2010)",
				"marker-size":"small",
				"marker-symbol":"building",
				"marker-color":"#fb6a4a",
				"name":"Chicos",
				"id":140080004,
				"p":7,
				"lv":1
			},
			"geometry":{
				"type":"Point",
				"coordinates":[-102.393056,20.649444]
			}
		},
		{
			"type":"Feature",
			"properties":{
				"title":"Localidad",
				"description":"Agua Nueva, 107 habs. (2010)",
				"marker-size":"small",
				"marker-symbol":"building",
				"marker-color":"#fb6a4a",
				"name":"Agua Nueva",
				"id":140080005,
				"p":107,
				"lv":1
			},
			"geometry":{
				"type":"Point",
				"coordinates":[-102.451112,20.678888]
			}
		},
		{
			"type":"Feature",
			"properties":{
				"title":"Localidad",
				"description":"Águila de González, 25 habs. (2010)",
				"marker-size":"small",
				"marker-symbol":"building",
				"marker-color":"#fb6a4a",
				"name":"Águila de González",
				"id":140080007,
				"p":25,
				"lv":1
			},
			"geometry":{
				"type":"Point",
				"coordinates":[-102.340556,20.884166]
			}
		},
		{
			"type":"Feature",
			"properties":{
				"title":"Localidad",
				"description":"Águila de Torres, 12 habs. (2010)",
				"marker-size":"small",
				"marker-symbol":"building",
				"marker-color":"#fb6a4a",
				"name":"Águila de Torres",
				"id":140080009,
				"p":12,
				"lv":1
			},
			"geometry":{
				"type":"Point",
				"coordinates":[-102.346667,20.842777]
			}
		},
		{
			"type":"Feature",
			"properties":{
				"title":"Localidad",
				"description":"Las Alazanas, 69 habs. (2010)",
				"marker-size":"small",
				"marker-symbol":"building",
				"marker-color":"#fb6a4a",
				"name":"Las Alazanas",
				"id":140080011,
				"p":69,
				"lv":1
			},
			"geometry":{
				"type":"Point",
				"coordinates":[-102.197223,20.734166]
			}
		},
		{
			"type":"Feature",
			"properties":{
				"title":"Localidad",
				"description":"El Ancón, 79 habs. (2010)",
				"marker-size":"small",
				"marker-symbol":"building",
				"marker-color":"#fb6a4a",
				"name":"El Ancón",
				"id":140080014,
				"p":79,
				"lv":1
			},
			"geometry":{
				"type":"Point",
				"coordinates":[-102.4175,20.678611]
			}
		},
		{
			"type":"Feature",
			"properties":{
				"title":"Localidad",
				"description":"Las Ánimas (Santa Isabel), 8 habs. (2010)",
				"marker-size":"small",
				"marker-symbol":"building",
				"marker-color":"#fb6a4a",
				"name":"Las Ánimas (Santa Isabel)",
				"id":140080016,
				"p":8,
				"lv":1
			},
			"geometry":{
				"type":"Point",
				"coordinates":[-102.338889,20.783055]
			}
		},
		{
			"type":"Feature",
			"properties":{
				"title":"Localidad",
				"description":"Los Aviones, 5 habs. (2010)",
				"marker-size":"small",
				"marker-symbol":"building",
				"marker-color":"#fb6a4a",
				"name":"Los Aviones",
				"id":140080022,
				"p":5,
				"lv":1
			},
			"geometry":{
				"type":"Point",
				"coordinates":[-102.3425,20.673333]
			}
		},
		{
			"type":"Feature",
			"properties":{
				"title":"Localidad",
				"description":"Bajío El Caracol (El Caracol), 29 habs. (2010)",
				"marker-size":"small",
				"marker-symbol":"building",
				"marker-color":"#fb6a4a",
				"name":"Bajío El Caracol (El Caracol)",
				"id":140080024,
				"p":29,
				"lv":1
			},
			"geometry":{
				"type":"Point",
				"coordinates":[-102.441112,20.841666]
			}
		},
		{
			"type":"Feature",
			"properties":{
				"title":"Localidad",
				"description":"Bajío Seco, 269 habs. (2010)",
				"marker-size":"small",
				"marker-symbol":"building",
				"marker-color":"#fb6a4a",
				"name":"Bajío Seco",
				"id":140080026,
				"p":269,
				"lv":1
			},
			"geometry":{
				"type":"Point",
				"coordinates":[-102.390278,20.708888]
			}
		},
		{
			"type":"Feature",
			"properties":{
				"title":"Localidad",
				"description":"El Bellotero (La Concepción), 28 habs. (2010)",
				"marker-size":"small",
				"marker-symbol":"building",
				"marker-color":"#fb6a4a",
				"name":"El Bellotero (La Concepción)",
				"id":140080036,
				"p":28,
				"lv":1
			},
			"geometry":{
				"type":"Point",
				"coordinates":[-102.411945,20.674166]
			}
		},
		{
			"type":"Feature",
			"properties":{
				"title":"Localidad",
				"description":"Cabrito, 183 habs. (2010)",
				"marker-size":"small",
				"marker-symbol":"building",
				"marker-color":"#fb6a4a",
				"name":"Cabrito",
				"id":140080045,
				"p":183,
				"lv":1
			},
			"geometry":{
				"type":"Point",
				"coordinates":[-102.276945,20.694444]
			}
		},
		{
			"type":"Feature",
			"properties":{
				"title":"Localidad",
				"description":"Casayaca, 1 habs. (2010)",
				"marker-size":"small",
				"marker-symbol":"building",
				"marker-color":"#fb6a4a",
				"name":"Casayaca",
				"id":140080046,
				"p":1,
				"lv":1
			},
			"geometry":{
				"type":"Point",
				"coordinates":[-102.377778,20.825833]
			}
		},
		{
			"type":"Feature",
			"properties":{
				"title":"Localidad",
				"description":"Camaleón, 17 habs. (2010)",
				"marker-size":"small",
				"marker-symbol":"building",
				"marker-color":"#fb6a4a",
				"name":"Camaleón",
				"id":140080050,
				"p":17,
				"lv":1
			},
			"geometry":{
				"type":"Point",
				"coordinates":[-102.381667,20.833611]
			}
		},
		{
			"type":"Feature",
			"properties":{
				"title":"Localidad",
				"description":"La Campana, 20 habs. (2010)",
				"marker-size":"small",
				"marker-symbol":"building",
				"marker-color":"#fb6a4a",
				"name":"La Campana",
				"id":140080051,
				"p":20,
				"lv":1
			},
			"geometry":{
				"type":"Point",
				"coordinates":[-102.322223,20.773888]
			}
		},
		{
			"type":"Feature",
			"properties":{
				"title":"Localidad",
				"description":"El Capulincito, 45 habs. (2010)",
				"marker-size":"small",
				"marker-symbol":"building",
				"marker-color":"#fb6a4a",
				"name":"El Capulincito",
				"id":140080056,
				"p":45,
				"lv":1
			},
			"geometry":{
				"type":"Point",
				"coordinates":[-102.368889,20.696666]
			}
		},
		{
			"type":"Feature",
			"properties":{
				"title":"Localidad",
				"description":"El Capulín Verde, 84 habs. (2010)",
				"marker-size":"small",
				"marker-symbol":"building",
				"marker-color":"#fb6a4a",
				"name":"El Capulín Verde",
				"id":140080057,
				"p":84,
				"lv":1
			},
			"geometry":{
				"type":"Point",
				"coordinates":[-102.464445,20.685833]
			}
		},
		{
			"type":"Feature",
			"properties":{
				"title":"Localidad",
				"description":"El Caracol, 85 habs. (2010)",
				"marker-size":"small",
				"marker-symbol":"building",
				"marker-color":"#fb6a4a",
				"name":"El Caracol",
				"id":140080058,
				"p":85,
				"lv":1
			},
			"geometry":{
				"type":"Point",
				"coordinates":[-102.326389,20.653333]
			}
		},
		{
			"type":"Feature",
			"properties":{
				"title":"Localidad",
				"description":"El Carrizal (Carrizal de Abajo), 31 habs. (2010)",
				"marker-size":"small",
				"marker-symbol":"building",
				"marker-color":"#fb6a4a",
				"name":"El Carrizal (Carrizal de Abajo)",
				"id":140080061,
				"p":31,
				"lv":1
			},
			"geometry":{
				"type":"Point",
				"coordinates":[-102.393612,20.678888]
			}
		},
		{
			"type":"Feature",
			"properties":{
				"title":"Localidad",
				"description":"El Centinela, 26 habs. (2010)",
				"marker-size":"small",
				"marker-symbol":"building",
				"marker-color":"#fb6a4a",
				"name":"El Centinela",
				"id":140080065,
				"p":26,
				"lv":1
			},
			"geometry":{
				"type":"Point",
				"coordinates":[-102.379723,20.719722]
			}
		},
		{
			"type":"Feature",
			"properties":{
				"title":"Localidad",
				"description":"El Centro, 76 habs. (2010)",
				"marker-size":"small",
				"marker-symbol":"building",
				"marker-color":"#fb6a4a",
				"name":"El Centro",
				"id":140080066,
				"p":76,
				"lv":1
			},
			"geometry":{
				"type":"Point",
				"coordinates":[-102.353889,20.647222]
			}
		},
		{
			"type":"Feature",
			"properties":{
				"title":"Localidad",
				"description":"Cerro Blanco, 40 habs. (2010)",
				"marker-size":"small",
				"marker-symbol":"building",
				"marker-color":"#fb6a4a",
				"name":"Cerro Blanco",
				"id":140080068,
				"p":40,
				"lv":1
			},
			"geometry":{
				"type":"Point",
				"coordinates":[-102.37,20.648888]
			}
		},
		{
			"type":"Feature",
			"properties":{
				"title":"Localidad",
				"description":"Cerro del Gallo, 23 habs. (2010)",
				"marker-size":"small",
				"marker-symbol":"building",
				"marker-color":"#fb6a4a",
				"name":"Cerro del Gallo",
				"id":140080071,
				"p":23,
				"lv":1
			},
			"geometry":{
				"type":"Point",
				"coordinates":[-102.3075,20.681666]
			}
		},
		{
			"type":"Feature",
			"properties":{
				"title":"Localidad",
				"description":"Cerro del Gusano, 27 habs. (2010)",
				"marker-size":"small",
				"marker-symbol":"building",
				"marker-color":"#fb6a4a",
				"name":"Cerro del Gusano",
				"id":140080072,
				"p":27,
				"lv":1
			},
			"geometry":{
				"type":"Point",
				"coordinates":[-102.420834,20.658611]
			}
		},
		{
			"type":"Feature",
			"properties":{
				"title":"Localidad",
				"description":"El Camaleón (Cerrito de Vallejo), 13 habs. (2010)",
				"marker-size":"small",
				"marker-symbol":"building",
				"marker-color":"#fb6a4a",
				"name":"El Camaleón (Cerrito de Vallejo)",
				"id":140080073,
				"p":13,
				"lv":1
			},
			"geometry":{
				"type":"Point",
				"coordinates":[-102.369723,20.86]
			}
		},
		{
			"type":"Feature",
			"properties":{
				"title":"Localidad",
				"description":"La Cieneguita, 174 habs. (2010)",
				"marker-size":"small",
				"marker-symbol":"building",
				"marker-color":"#fb6a4a",
				"name":"La Cieneguita",
				"id":140080078,
				"p":174,
				"lv":1
			},
			"geometry":{
				"type":"Point",
				"coordinates":[-102.299445,20.756111]
			}
		},
		{
			"type":"Feature",
			"properties":{
				"title":"Localidad",
				"description":"La Corambre, 251 habs. (2010)",
				"marker-size":"small",
				"marker-symbol":"building",
				"marker-color":"#fb6a4a",
				"name":"La Corambre",
				"id":140080083,
				"p":251,
				"lv":1
			},
			"geometry":{
				"type":"Point",
				"coordinates":[-102.351112,20.616944]
			}
		},
		{
			"type":"Feature",
			"properties":{
				"title":"Localidad",
				"description":"La Cruz del Pastor, 42 habs. (2010)",
				"marker-size":"small",
				"marker-symbol":"building",
				"marker-color":"#fb6a4a",
				"name":"La Cruz del Pastor",
				"id":140080089,
				"p":42,
				"lv":1
			},
			"geometry":{
				"type":"Point",
				"coordinates":[-102.330556,20.827222]
			}
		},
		{
			"type":"Feature",
			"properties":{
				"title":"Localidad",
				"description":"Los Charcos, 15 habs. (2010)",
				"marker-size":"small",
				"marker-symbol":"building",
				"marker-color":"#fb6a4a",
				"name":"Los Charcos",
				"id":140080093,
				"p":15,
				"lv":1
			},
			"geometry":{
				"type":"Point",
				"coordinates":[-102.351112,20.829722]
			}
		},
		{
			"type":"Feature",
			"properties":{
				"title":"Localidad",
				"description":"El Chilarejón (Puente de Guadalupe), 23 habs. (2010)",
				"marker-size":"small",
				"marker-symbol":"building",
				"marker-color":"#fb6a4a",
				"name":"El Chilarejón (Puente de Guadalupe)",
				"id":140080095,
				"p":23,
				"lv":1
			},
			"geometry":{
				"type":"Point",
				"coordinates":[-102.326667,20.697222]
			}
		},
		{
			"type":"Feature",
			"properties":{
				"title":"Localidad",
				"description":"El Chiquihuitillo, 23 habs. (2010)",
				"marker-size":"small",
				"marker-symbol":"building",
				"marker-color":"#fb6a4a",
				"name":"El Chiquihuitillo",
				"id":140080096,
				"p":23,
				"lv":1
			},
			"geometry":{
				"type":"Point",
				"coordinates":[-102.3775,20.795833]
			}
		},
		{
			"type":"Feature",
			"properties":{
				"title":"Localidad",
				"description":"El Chivo, 83 habs. (2010)",
				"marker-size":"small",
				"marker-symbol":"building",
				"marker-color":"#fb6a4a",
				"name":"El Chivo",
				"id":140080097,
				"p":83,
				"lv":1
			},
			"geometry":{
				"type":"Point",
				"coordinates":[-102.34,20.685833]
			}
		},
		{
			"type":"Feature",
			"properties":{
				"title":"Localidad",
				"description":"Los Encinos, 33 habs. (2010)",
				"marker-size":"small",
				"marker-symbol":"building",
				"marker-color":"#fb6a4a",
				"name":"Los Encinos",
				"id":140080102,
				"p":33,
				"lv":1
			},
			"geometry":{
				"type":"Point",
				"coordinates":[-102.303889,20.846944]
			}
		},
		{
			"type":"Feature",
			"properties":{
				"title":"Localidad",
				"description":"La Ermita, 11 habs. (2010)",
				"marker-size":"small",
				"marker-symbol":"building",
				"marker-color":"#fb6a4a",
				"name":"La Ermita",
				"id":140080103,
				"p":11,
				"lv":1
			},
			"geometry":{
				"type":"Point",
				"coordinates":[-102.442778,20.664166]
			}
		},
		{
			"type":"Feature",
			"properties":{
				"title":"Localidad",
				"description":"El Estribo, 44 habs. (2010)",
				"marker-size":"small",
				"marker-symbol":"building",
				"marker-color":"#fb6a4a",
				"name":"El Estribo",
				"id":140080106,
				"p":44,
				"lv":1
			},
			"geometry":{
				"type":"Point",
				"coordinates":[-102.234167,20.749444]
			}
		},
		{
			"type":"Feature",
			"properties":{
				"title":"Localidad",
				"description":"La Garita, 5 habs. (2010)",
				"marker-size":"small",
				"marker-symbol":"building",
				"marker-color":"#fb6a4a",
				"name":"La Garita",
				"id":140080117,
				"p":5,
				"lv":1
			},
			"geometry":{
				"type":"Point",
				"coordinates":[-102.374445,20.727777]
			}
		},
		{
			"type":"Feature",
			"properties":{
				"title":"Localidad",
				"description":"La Gloria, 359 habs. (2010)",
				"marker-size":"small",
				"marker-symbol":"building",
				"marker-color":"#fb6a4a",
				"name":"La Gloria",
				"id":140080118,
				"p":359,
				"lv":1
			},
			"geometry":{
				"type":"Point",
				"coordinates":[-102.383889,20.612222]
			}
		},
		{
			"type":"Feature",
			"properties":{
				"title":"Localidad",
				"description":"Hacienda de Guadalupe, 52 habs. (2010)",
				"marker-size":"small",
				"marker-symbol":"building",
				"marker-color":"#fb6a4a",
				"name":"Hacienda de Guadalupe",
				"id":140080120,
				"p":52,
				"lv":1
			},
			"geometry":{
				"type":"Point",
				"coordinates":[-102.428334,20.791388]
			}
		},
		{
			"type":"Feature",
			"properties":{
				"title":"Localidad",
				"description":"Jaquetas, 113 habs. (2010)",
				"marker-size":"small",
				"marker-symbol":"building",
				"marker-color":"#fb6a4a",
				"name":"Jaquetas",
				"id":140080130,
				"p":113,
				"lv":1
			},
			"geometry":{
				"type":"Point",
				"coordinates":[-102.510834,20.670555]
			}
		},
		{
			"type":"Feature",
			"properties":{
				"title":"Localidad",
				"description":"Las Jaras, 27 habs. (2010)",
				"marker-size":"small",
				"marker-symbol":"building",
				"marker-color":"#fb6a4a",
				"name":"Las Jaras",
				"id":140080131,
				"p":27,
				"lv":1
			},
			"geometry":{
				"type":"Point",
				"coordinates":[-102.23,20.701666]
			}
		},
		{
			"type":"Feature",
			"properties":{
				"title":"Localidad",
				"description":"La Ladera, 16 habs. (2010)",
				"marker-size":"small",
				"marker-symbol":"building",
				"marker-color":"#fb6a4a",
				"name":"La Ladera",
				"id":140080137,
				"p":16,
				"lv":1
			},
			"geometry":{
				"type":"Point",
				"coordinates":[-102.328056,20.874722]
			}
		},
		{
			"type":"Feature",
			"properties":{
				"title":"Localidad",
				"description":"La Lagunita, 19 habs. (2010)",
				"marker-size":"small",
				"marker-symbol":"building",
				"marker-color":"#fb6a4a",
				"name":"La Lagunita",
				"id":140080141,
				"p":19,
				"lv":1
			},
			"geometry":{
				"type":"Point",
				"coordinates":[-102.265,20.741666]
			}
		},
		{
			"type":"Feature",
			"properties":{
				"title":"Localidad",
				"description":"Las Lagunitas, 42 habs. (2010)",
				"marker-size":"small",
				"marker-symbol":"building",
				"marker-color":"#fb6a4a",
				"name":"Las Lagunitas",
				"id":140080142,
				"p":42,
				"lv":1
			},
			"geometry":{
				"type":"Point",
				"coordinates":[-102.403056,20.690833]
			}
		},
		{
			"type":"Feature",
			"properties":{
				"title":"Localidad",
				"description":"El Laurel (El Monte), 118 habs. (2010)",
				"marker-size":"small",
				"marker-symbol":"building",
				"marker-color":"#fb6a4a",
				"name":"El Laurel (El Monte)",
				"id":140080145,
				"p":118,
				"lv":1
			},
			"geometry":{
				"type":"Point",
				"coordinates":[-102.388889,20.631944]
			}
		},
		{
			"type":"Feature",
			"properties":{
				"title":"Localidad",
				"description":"El Lienzo, 11 habs. (2010)",
				"marker-size":"small",
				"marker-symbol":"building",
				"marker-color":"#fb6a4a",
				"name":"El Lienzo",
				"id":140080146,
				"p":11,
				"lv":1
			},
			"geometry":{
				"type":"Point",
				"coordinates":[-102.347778,20.623333]
			}
		},
		{
			"type":"Feature",
			"properties":{
				"title":"Localidad",
				"description":"La Loma del Nopal, 139 habs. (2010)",
				"marker-size":"small",
				"marker-symbol":"building",
				"marker-color":"#fb6a4a",
				"name":"La Loma del Nopal",
				"id":140080150,
				"p":139,
				"lv":1
			},
			"geometry":{
				"type":"Point",
				"coordinates":[-102.401667,20.73]
			}
		},
		{
			"type":"Feature",
			"properties":{
				"title":"Localidad",
				"description":"Loma Larga, 5 habs. (2010)",
				"marker-size":"small",
				"marker-symbol":"building",
				"marker-color":"#fb6a4a",
				"name":"Loma Larga",
				"id":140080151,
				"p":5,
				"lv":1
			},
			"geometry":{
				"type":"Point",
				"coordinates":[-102.344445,20.819166]
			}
		},
		{
			"type":"Feature",
			"properties":{
				"title":"Localidad",
				"description":"Los Llanitos, 15 habs. (2010)",
				"marker-size":"small",
				"marker-symbol":"building",
				"marker-color":"#fb6a4a",
				"name":"Los Llanitos",
				"id":140080153,
				"p":15,
				"lv":1
			},
			"geometry":{
				"type":"Point",
				"coordinates":[-102.323334,20.715]
			}
		},
		{
			"type":"Feature",
			"properties":{
				"title":"Localidad",
				"description":"Llano Grande, 344 habs. (2010)",
				"marker-size":"small",
				"marker-symbol":"building",
				"marker-color":"#fb6a4a",
				"name":"Llano Grande",
				"id":140080154,
				"p":344,
				"lv":1
			},
			"geometry":{
				"type":"Point",
				"coordinates":[-102.305,20.697777]
			}
		},
		{
			"type":"Feature",
			"properties":{
				"title":"Localidad",
				"description":"La Madrastra, 7 habs. (2010)",
				"marker-size":"small",
				"marker-symbol":"building",
				"marker-color":"#fb6a4a",
				"name":"La Madrastra",
				"id":140080156,
				"p":7,
				"lv":1
			},
			"geometry":{
				"type":"Point",
				"coordinates":[-102.296112,20.728611]
			}
		},
		{
			"type":"Feature",
			"properties":{
				"title":"Localidad",
				"description":"La Manga, 33 habs. (2010)",
				"marker-size":"small",
				"marker-symbol":"building",
				"marker-color":"#fb6a4a",
				"name":"La Manga",
				"id":140080158,
				"p":33,
				"lv":1
			},
			"geometry":{
				"type":"Point",
				"coordinates":[-102.294167,20.797222]
			}
		},
		{
			"type":"Feature",
			"properties":{
				"title":"Localidad",
				"description":"La Mata, 12 habs. (2010)",
				"marker-size":"small",
				"marker-symbol":"building",
				"marker-color":"#fb6a4a",
				"name":"La Mata",
				"id":140080162,
				"p":12,
				"lv":1
			},
			"geometry":{
				"type":"Point",
				"coordinates":[-102.318334,20.866666]
			}
		},
		{
			"type":"Feature",
			"properties":{
				"title":"Localidad",
				"description":"El Mirasol, 6 habs. (2010)",
				"marker-size":"small",
				"marker-symbol":"building",
				"marker-color":"#fb6a4a",
				"name":"El Mirasol",
				"id":140080171,
				"p":6,
				"lv":1
			},
			"geometry":{
				"type":"Point",
				"coordinates":[-102.331667,20.691111]
			}
		},
		{
			"type":"Feature",
			"properties":{
				"title":"Localidad",
				"description":"El Mogote, 75 habs. (2010)",
				"marker-size":"small",
				"marker-symbol":"building",
				"marker-color":"#fb6a4a",
				"name":"El Mogote",
				"id":140080172,
				"p":75,
				"lv":1
			},
			"geometry":{
				"type":"Point",
				"coordinates":[-102.405556,20.706388]
			}
		},
		{
			"type":"Feature",
			"properties":{
				"title":"Localidad",
				"description":"El Muerto, 12 habs. (2010)",
				"marker-size":"small",
				"marker-symbol":"building",
				"marker-color":"#fb6a4a",
				"name":"El Muerto",
				"id":140080175,
				"p":12,
				"lv":1
			},
			"geometry":{
				"type":"Point",
				"coordinates":[-102.360556,20.858611]
			}
		},
		{
			"type":"Feature",
			"properties":{
				"title":"Localidad",
				"description":"El Nogal, 122 habs. (2010)",
				"marker-size":"small",
				"marker-symbol":"building",
				"marker-color":"#fb6a4a",
				"name":"El Nogal",
				"id":140080177,
				"p":122,
				"lv":1
			},
			"geometry":{
				"type":"Point",
				"coordinates":[-102.381112,20.734444]
			}
		},
		{
			"type":"Feature",
			"properties":{
				"title":"Localidad",
				"description":"El Nopal, 28 habs. (2010)",
				"marker-size":"small",
				"marker-symbol":"building",
				"marker-color":"#fb6a4a",
				"name":"El Nopal",
				"id":140080178,
				"p":28,
				"lv":1
			},
			"geometry":{
				"type":"Point",
				"coordinates":[-102.415,20.719444]
			}
		},
		{
			"type":"Feature",
			"properties":{
				"title":"Localidad",
				"description":"El Ocote de Abajo, 20 habs. (2010)",
				"marker-size":"small",
				"marker-symbol":"building",
				"marker-color":"#fb6a4a",
				"name":"El Ocote de Abajo",
				"id":140080181,
				"p":20,
				"lv":1
			},
			"geometry":{
				"type":"Point",
				"coordinates":[-102.367223,20.668888]
			}
		},
		{
			"type":"Feature",
			"properties":{
				"title":"Localidad",
				"description":"Ojo de Agua de Hernández, 77 habs. (2010)",
				"marker-size":"small",
				"marker-symbol":"building",
				"marker-color":"#fb6a4a",
				"name":"Ojo de Agua de Hernández",
				"id":140080184,
				"p":77,
				"lv":1
			},
			"geometry":{
				"type":"Point",
				"coordinates":[-102.267223,20.677222]
			}
		},
		{
			"type":"Feature",
			"properties":{
				"title":"Localidad",
				"description":"Ojo de Agua (Rincón de Molino), 137 habs. (2010)",
				"marker-size":"small",
				"marker-symbol":"building",
				"marker-color":"#fb6a4a",
				"name":"Ojo de Agua (Rincón de Molino)",
				"id":140080187,
				"p":137,
				"lv":1
			},
			"geometry":{
				"type":"Point",
				"coordinates":[-102.433056,20.594166]
			}
		},
		{
			"type":"Feature",
			"properties":{
				"title":"Localidad",
				"description":"El Paixtle, 9 habs. (2010)",
				"marker-size":"small",
				"marker-symbol":"building",
				"marker-color":"#fb6a4a",
				"name":"El Paixtle",
				"id":140080191,
				"p":9,
				"lv":1
			},
			"geometry":{
				"type":"Point",
				"coordinates":[-102.275,20.888055]
			}
		},
		{
			"type":"Feature",
			"properties":{
				"title":"Localidad",
				"description":"Palo Cuate, 19 habs. (2010)",
				"marker-size":"small",
				"marker-symbol":"building",
				"marker-color":"#fb6a4a",
				"name":"Palo Cuate",
				"id":140080193,
				"p":19,
				"lv":1
			},
			"geometry":{
				"type":"Point",
				"coordinates":[-102.340278,20.634722]
			}
		},
		{
			"type":"Feature",
			"properties":{
				"title":"Localidad",
				"description":"Las Palomas (El Libramiento Kilómetro Dos), 42 habs. (2010)",
				"marker-size":"small",
				"marker-symbol":"building",
				"marker-color":"#fb6a4a",
				"name":"Las Palomas (El Libramiento Kilómetro Dos)",
				"id":140080195,
				"p":42,
				"lv":1
			},
			"geometry":{
				"type":"Point",
				"coordinates":[-102.361112,20.706944]
			}
		},
		{
			"type":"Feature",
			"properties":{
				"title":"Localidad",
				"description":"Palos Colorados, 66 habs. (2010)",
				"marker-size":"small",
				"marker-symbol":"building",
				"marker-color":"#fb6a4a",
				"name":"Palos Colorados",
				"id":140080196,
				"p":66,
				"lv":1
			},
			"geometry":{
				"type":"Point",
				"coordinates":[-102.320278,20.726111]
			}
		},
		{
			"type":"Feature",
			"properties":{
				"title":"Localidad",
				"description":"Paso Colorado, 11 habs. (2010)",
				"marker-size":"small",
				"marker-symbol":"building",
				"marker-color":"#fb6a4a",
				"name":"Paso Colorado",
				"id":140080198,
				"p":11,
				"lv":1
			},
			"geometry":{
				"type":"Point",
				"coordinates":[-102.41,20.658888]
			}
		},
		{
			"type":"Feature",
			"properties":{
				"title":"Localidad",
				"description":"La Peñita, 265 habs. (2010)",
				"marker-size":"small",
				"marker-symbol":"building",
				"marker-color":"#fb6a4a",
				"name":"La Peñita",
				"id":140080204,
				"p":265,
				"lv":1
			},
			"geometry":{
				"type":"Point",
				"coordinates":[-102.3475,20.721944]
			}
		},
		{
			"type":"Feature",
			"properties":{
				"title":"Localidad",
				"description":"Piedras Blancas, 34 habs. (2010)",
				"marker-size":"small",
				"marker-symbol":"building",
				"marker-color":"#fb6a4a",
				"name":"Piedras Blancas",
				"id":140080207,
				"p":34,
				"lv":1
			},
			"geometry":{
				"type":"Point",
				"coordinates":[-102.399445,20.863055]
			}
		},
		{
			"type":"Feature",
			"properties":{
				"title":"Localidad",
				"description":"Los Planes, 15 habs. (2010)",
				"marker-size":"small",
				"marker-symbol":"building",
				"marker-color":"#fb6a4a",
				"name":"Los Planes",
				"id":140080210,
				"p":15,
				"lv":1
			},
			"geometry":{
				"type":"Point",
				"coordinates":[-102.379445,20.601944]
			}
		},
		{
			"type":"Feature",
			"properties":{
				"title":"Localidad",
				"description":"La Poblada, 9 habs. (2010)",
				"marker-size":"small",
				"marker-symbol":"building",
				"marker-color":"#fb6a4a",
				"name":"La Poblada",
				"id":140080212,
				"p":9,
				"lv":1
			},
			"geometry":{
				"type":"Point",
				"coordinates":[-102.394167,20.608055]
			}
		},
		{
			"type":"Feature",
			"properties":{
				"title":"Localidad",
				"description":"El Pocito de Arriba, 46 habs. (2010)",
				"marker-size":"small",
				"marker-symbol":"building",
				"marker-color":"#fb6a4a",
				"name":"El Pocito de Arriba",
				"id":140080213,
				"p":46,
				"lv":1
			},
			"geometry":{
				"type":"Point",
				"coordinates":[-102.413889,20.853055]
			}
		},
		{
			"type":"Feature",
			"properties":{
				"title":"Localidad",
				"description":"Los Pocitos, 85 habs. (2010)",
				"marker-size":"small",
				"marker-symbol":"building",
				"marker-color":"#fb6a4a",
				"name":"Los Pocitos",
				"id":140080214,
				"p":85,
				"lv":1
			},
			"geometry":{
				"type":"Point",
				"coordinates":[-102.222223,20.729444]
			}
		},
		{
			"type":"Feature",
			"properties":{
				"title":"Localidad",
				"description":"La Pueblita, 73 habs. (2010)",
				"marker-size":"small",
				"marker-symbol":"building",
				"marker-color":"#fb6a4a",
				"name":"La Pueblita",
				"id":140080222,
				"p":73,
				"lv":1
			},
			"geometry":{
				"type":"Point",
				"coordinates":[-102.324445,20.644166]
			}
		},
		{
			"type":"Feature",
			"properties":{
				"title":"Localidad",
				"description":"El Puertecito, 26 habs. (2010)",
				"marker-size":"small",
				"marker-symbol":"building",
				"marker-color":"#fb6a4a",
				"name":"El Puertecito",
				"id":140080228,
				"p":26,
				"lv":1
			},
			"geometry":{
				"type":"Point",
				"coordinates":[-102.295834,20.849166]
			}
		},
		{
			"type":"Feature",
			"properties":{
				"title":"Localidad",
				"description":"La Punta, 10 habs. (2010)",
				"marker-size":"small",
				"marker-symbol":"building",
				"marker-color":"#fb6a4a",
				"name":"La Punta",
				"id":140080230,
				"p":10,
				"lv":1
			},
			"geometry":{
				"type":"Point",
				"coordinates":[-102.361945,20.805277]
			}
		},
		{
			"type":"Feature",
			"properties":{
				"title":"Localidad",
				"description":"Queretarito, 50 habs. (2010)",
				"marker-size":"small",
				"marker-symbol":"building",
				"marker-color":"#fb6a4a",
				"name":"Queretarito",
				"id":140080231,
				"p":50,
				"lv":1
			},
			"geometry":{
				"type":"Point",
				"coordinates":[-102.362223,20.712222]
			}
		},
		{
			"type":"Feature",
			"properties":{
				"title":"Localidad",
				"description":"La Rana, 114 habs. (2010)",
				"marker-size":"small",
				"marker-symbol":"building",
				"marker-color":"#fb6a4a",
				"name":"La Rana",
				"id":140080234,
				"p":114,
				"lv":1
			},
			"geometry":{
				"type":"Point",
				"coordinates":[-102.424445,20.810555]
			}
		},
		{
			"type":"Feature",
			"properties":{
				"title":"Localidad",
				"description":"El Ranchito, 1 habs. (2010)",
				"marker-size":"small",
				"marker-symbol":"building",
				"marker-color":"#fb6a4a",
				"name":"El Ranchito",
				"id":140080236,
				"p":1,
				"lv":1
			},
			"geometry":{
				"type":"Point",
				"coordinates":[-102.439167,20.653888]
			}
		},
		{
			"type":"Feature",
			"properties":{
				"title":"Localidad",
				"description":"Ranchos Nuevos, 33 habs. (2010)",
				"marker-size":"small",
				"marker-symbol":"building",
				"marker-color":"#fb6a4a",
				"name":"Ranchos Nuevos",
				"id":140080238,
				"p":33,
				"lv":1
			},
			"geometry":{
				"type":"Point",
				"coordinates":[-102.281945,20.770555]
			}
		},
		{
			"type":"Feature",
			"properties":{
				"title":"Localidad",
				"description":"La Resolana, 23 habs. (2010)",
				"marker-size":"small",
				"marker-symbol":"building",
				"marker-color":"#fb6a4a",
				"name":"La Resolana",
				"id":140080243,
				"p":23,
				"lv":1
			},
			"geometry":{
				"type":"Point",
				"coordinates":[-102.318889,20.826666]
			}
		},
		{
			"type":"Feature",
			"properties":{
				"title":"Localidad",
				"description":"Rincón de Ocotes, 191 habs. (2010)",
				"marker-size":"small",
				"marker-symbol":"building",
				"marker-color":"#fb6a4a",
				"name":"Rincón de Ocotes",
				"id":140080244,
				"p":191,
				"lv":1
			},
			"geometry":{
				"type":"Point",
				"coordinates":[-102.412778,20.609444]
			}
		},
		{
			"type":"Feature",
			"properties":{
				"title":"Localidad",
				"description":"Río de Sánchez, 28 habs. (2010)",
				"marker-size":"small",
				"marker-symbol":"building",
				"marker-color":"#fb6a4a",
				"name":"Río de Sánchez",
				"id":140080245,
				"p":28,
				"lv":1
			},
			"geometry":{
				"type":"Point",
				"coordinates":[-102.419723,20.647222]
			}
		},
		{
			"type":"Feature",
			"properties":{
				"title":"Localidad",
				"description":"Los Robles, 59 habs. (2010)",
				"marker-size":"small",
				"marker-symbol":"building",
				"marker-color":"#fb6a4a",
				"name":"Los Robles",
				"id":140080247,
				"p":59,
				"lv":1
			},
			"geometry":{
				"type":"Point",
				"coordinates":[-102.396389,20.645833]
			}
		},
		{
			"type":"Feature",
			"properties":{
				"title":"Localidad",
				"description":"La Rosa de Castilla, 119 habs. (2010)",
				"marker-size":"small",
				"marker-symbol":"building",
				"marker-color":"#fb6a4a",
				"name":"La Rosa de Castilla",
				"id":140080249,
				"p":119,
				"lv":1
			},
			"geometry":{
				"type":"Point",
				"coordinates":[-102.250834,20.708055]
			}
		},
		{
			"type":"Feature",
			"properties":{
				"title":"Localidad",
				"description":"Rosas Azules, 164 habs. (2010)",
				"marker-size":"small",
				"marker-symbol":"building",
				"marker-color":"#fb6a4a",
				"name":"Rosas Azules",
				"id":140080250,
				"p":164,
				"lv":1
			},
			"geometry":{
				"type":"Point",
				"coordinates":[-102.32,20.752222]
			}
		},
		{
			"type":"Feature",
			"properties":{
				"title":"Localidad",
				"description":"San Bernardo El Grande (San Bernardo), 1 habs. (2010)",
				"marker-size":"small",
				"marker-symbol":"building",
				"marker-color":"#fb6a4a",
				"name":"San Bernardo El Grande (San Bernardo)",
				"id":140080260,
				"p":1,
				"lv":1
			},
			"geometry":{
				"type":"Point",
				"coordinates":[-102.345556,20.610833]
			}
		},
		{
			"type":"Feature",
			"properties":{
				"title":"Localidad",
				"description":"San Francisco, 273 habs. (2010)",
				"marker-size":"small",
				"marker-symbol":"building",
				"marker-color":"#fb6a4a",
				"name":"San Francisco",
				"id":140080261,
				"p":273,
				"lv":1
			},
			"geometry":{
				"type":"Point",
				"coordinates":[-102.3625,20.730555]
			}
		},
		{
			"type":"Feature",
			"properties":{
				"title":"Localidad",
				"description":"San Francisco de Ocotes, 81 habs. (2010)",
				"marker-size":"small",
				"marker-symbol":"building",
				"marker-color":"#fb6a4a",
				"name":"San Francisco de Ocotes",
				"id":140080262,
				"p":81,
				"lv":1
			},
			"geometry":{
				"type":"Point",
				"coordinates":[-102.254723,20.7275]
			}
		},
		{
			"type":"Feature",
			"properties":{
				"title":"Localidad",
				"description":"La Sanguijuela, 16 habs. (2010)",
				"marker-size":"small",
				"marker-symbol":"building",
				"marker-color":"#fb6a4a",
				"name":"La Sanguijuela",
				"id":140080263,
				"p":16,
				"lv":1
			},
			"geometry":{
				"type":"Point",
				"coordinates":[-102.356667,20.740833]
			}
		},
		{
			"type":"Feature",
			"properties":{
				"title":"Localidad",
				"description":"San Isidro, 10 habs. (2010)",
				"marker-size":"small",
				"marker-symbol":"building",
				"marker-color":"#fb6a4a",
				"name":"San Isidro",
				"id":140080266,
				"p":10,
				"lv":1
			},
			"geometry":{
				"type":"Point",
				"coordinates":[-102.338056,20.658333]
			}
		},
		{
			"type":"Feature",
			"properties":{
				"title":"Localidad",
				"description":"San Jerónimo (La Pólvora), 6 habs. (2010)",
				"marker-size":"small",
				"marker-symbol":"building",
				"marker-color":"#fb6a4a",
				"name":"San Jerónimo (La Pólvora)",
				"id":140080267,
				"p":6,
				"lv":1
			},
			"geometry":{
				"type":"Point",
				"coordinates":[-102.262223,20.703888]
			}
		},
		{
			"type":"Feature",
			"properties":{
				"title":"Localidad",
				"description":"San José de los Sabinos, 70 habs. (2010)",
				"marker-size":"small",
				"marker-symbol":"building",
				"marker-color":"#fb6a4a",
				"name":"San José de los Sabinos",
				"id":140080269,
				"p":70,
				"lv":1
			},
			"geometry":{
				"type":"Point",
				"coordinates":[-102.356667,20.651111]
			}
		},
		{
			"type":"Feature",
			"properties":{
				"title":"Localidad",
				"description":"San Nicolás, 13 habs. (2010)",
				"marker-size":"small",
				"marker-symbol":"building",
				"marker-color":"#fb6a4a",
				"name":"San Nicolás",
				"id":140080271,
				"p":13,
				"lv":1
			},
			"geometry":{
				"type":"Point",
				"coordinates":[-102.295834,20.703055]
			}
		},
		{
			"type":"Feature",
			"properties":{
				"title":"Localidad",
				"description":"San Rafael, 25 habs. (2010)",
				"marker-size":"small",
				"marker-symbol":"building",
				"marker-color":"#fb6a4a",
				"name":"San Rafael",
				"id":140080272,
				"p":25,
				"lv":1
			},
			"geometry":{
				"type":"Point",
				"coordinates":[-102.234445,20.758611]
			}
		},
		{
			"type":"Feature",
			"properties":{
				"title":"Localidad",
				"description":"San Roque, 46 habs. (2010)",
				"marker-size":"small",
				"marker-symbol":"building",
				"marker-color":"#fb6a4a",
				"name":"San Roque",
				"id":140080274,
				"p":46,
				"lv":1
			},
			"geometry":{
				"type":"Point",
				"coordinates":[-102.361389,20.658611]
			}
		},
		{
			"type":"Feature",
			"properties":{
				"title":"Localidad",
				"description":"Santa Gertrudis, 12 habs. (2010)",
				"marker-size":"small",
				"marker-symbol":"building",
				"marker-color":"#fb6a4a",
				"name":"Santa Gertrudis",
				"id":140080279,
				"p":12,
				"lv":1
			},
			"geometry":{
				"type":"Point",
				"coordinates":[-102.403056,20.628333]
			}
		},
		{
			"type":"Feature",
			"properties":{
				"title":"Localidad",
				"description":"Santa María del Valle, 4142 habs. (2010)",
				"marker-size":"small",
				"marker-symbol":"building",
				"marker-color":"#fb6a4a",
				"name":"Santa María del Valle",
				"id":140080280,
				"p":4142,
				"lv":1
			},
			"geometry":{
				"type":"Point",
				"coordinates":[-102.379167,20.877777]
			}
		},
		{
			"type":"Feature",
			"properties":{
				"title":"Localidad",
				"description":"Santa Rita, 35 habs. (2010)",
				"marker-size":"small",
				"marker-symbol":"building",
				"marker-color":"#fb6a4a",
				"name":"Santa Rita",
				"id":140080281,
				"p":35,
				"lv":1
			},
			"geometry":{
				"type":"Point",
				"coordinates":[-102.231945,20.732222]
			}
		},
		{
			"type":"Feature",
			"properties":{
				"title":"Localidad",
				"description":"Santiaguito (Santiaguito de Velázquez), 1111 habs. (2010)",
				"marker-size":"small",
				"marker-symbol":"building",
				"marker-color":"#fb6a4a",
				"name":"Santiaguito (Santiaguito de Velázquez)",
				"id":140080283,
				"p":1111,
				"lv":1
			},
			"geometry":{
				"type":"Point",
				"coordinates":[-102.236945,20.725555]
			}
		},
		{
			"type":"Feature",
			"properties":{
				"title":"Localidad",
				"description":"El Saucillo, 77 habs. (2010)",
				"marker-size":"small",
				"marker-symbol":"building",
				"marker-color":"#fb6a4a",
				"name":"El Saucillo",
				"id":140080287,
				"p":77,
				"lv":1
			},
			"geometry":{
				"type":"Point",
				"coordinates":[-102.353334,20.757777]
			}
		},
		{
			"type":"Feature",
			"properties":{
				"title":"Localidad",
				"description":"La Soledad, 15 habs. (2010)",
				"marker-size":"small",
				"marker-symbol":"building",
				"marker-color":"#fb6a4a",
				"name":"La Soledad",
				"id":140080289,
				"p":15,
				"lv":1
			},
			"geometry":{
				"type":"Point",
				"coordinates":[-102.412223,20.832222]
			}
		},
		{
			"type":"Feature",
			"properties":{
				"title":"Localidad",
				"description":"La Teja, 32 habs. (2010)",
				"marker-size":"small",
				"marker-symbol":"building",
				"marker-color":"#fb6a4a",
				"name":"La Teja",
				"id":140080294,
				"p":32,
				"lv":1
			},
			"geometry":{
				"type":"Point",
				"coordinates":[-102.311945,20.794166]
			}
		},
		{
			"type":"Feature",
			"properties":{
				"title":"Localidad",
				"description":"El Tepetate, 23 habs. (2010)",
				"marker-size":"small",
				"marker-symbol":"building",
				"marker-color":"#fb6a4a",
				"name":"El Tepetate",
				"id":140080295,
				"p":23,
				"lv":1
			},
			"geometry":{
				"type":"Point",
				"coordinates":[-102.386389,20.621388]
			}
		},
		{
			"type":"Feature",
			"properties":{
				"title":"Localidad",
				"description":"Timones, 12 habs. (2010)",
				"marker-size":"small",
				"marker-symbol":"building",
				"marker-color":"#fb6a4a",
				"name":"Timones",
				"id":140080301,
				"p":12,
				"lv":1
			},
			"geometry":{
				"type":"Point",
				"coordinates":[-102.309445,20.728611]
			}
		},
		{
			"type":"Feature",
			"properties":{
				"title":"Localidad",
				"description":"Las Tortugas, 4 habs. (2010)",
				"marker-size":"small",
				"marker-symbol":"building",
				"marker-color":"#fb6a4a",
				"name":"Las Tortugas",
				"id":140080303,
				"p":4,
				"lv":1
			},
			"geometry":{
				"type":"Point",
				"coordinates":[-102.311667,20.766666]
			}
		},
		{
			"type":"Feature",
			"properties":{
				"title":"Localidad",
				"description":"La Troja, 27 habs. (2010)",
				"marker-size":"small",
				"marker-symbol":"building",
				"marker-color":"#fb6a4a",
				"name":"La Troja",
				"id":140080307,
				"p":27,
				"lv":1
			},
			"geometry":{
				"type":"Point",
				"coordinates":[-102.278889,20.804444]
			}
		},
		{
			"type":"Feature",
			"properties":{
				"title":"Localidad",
				"description":"El Tule, 645 habs. (2010)",
				"marker-size":"small",
				"marker-symbol":"building",
				"marker-color":"#fb6a4a",
				"name":"El Tule",
				"id":140080311,
				"p":645,
				"lv":1
			},
			"geometry":{
				"type":"Point",
				"coordinates":[-102.440834,20.716666]
			}
		},
		{
			"type":"Feature",
			"properties":{
				"title":"Localidad",
				"description":"El Vallado, 11 habs. (2010)",
				"marker-size":"small",
				"marker-symbol":"building",
				"marker-color":"#fb6a4a",
				"name":"El Vallado",
				"id":140080317,
				"p":11,
				"lv":1
			},
			"geometry":{
				"type":"Point",
				"coordinates":[-102.340834,20.741111]
			}
		},
		{
			"type":"Feature",
			"properties":{
				"title":"Localidad",
				"description":"El Viborero, 93 habs. (2010)",
				"marker-size":"small",
				"marker-symbol":"building",
				"marker-color":"#fb6a4a",
				"name":"El Viborero",
				"id":140080320,
				"p":93,
				"lv":1
			},
			"geometry":{
				"type":"Point",
				"coordinates":[-102.467223,20.678611]
			}
		},
		{
			"type":"Feature",
			"properties":{
				"title":"Localidad",
				"description":"Águila de Lucas, 6 habs. (2010)",
				"marker-size":"small",
				"marker-symbol":"building",
				"marker-color":"#fb6a4a",
				"name":"Águila de Lucas",
				"id":140080323,
				"p":6,
				"lv":1
			},
			"geometry":{
				"type":"Point",
				"coordinates":[-102.332223,20.875]
			}
		},
		{
			"type":"Feature",
			"properties":{
				"title":"Localidad",
				"description":"El Zapote de Álvarez, 30 habs. (2010)",
				"marker-size":"small",
				"marker-symbol":"building",
				"marker-color":"#fb6a4a",
				"name":"El Zapote de Álvarez",
				"id":140080327,
				"p":30,
				"lv":1
			},
			"geometry":{
				"type":"Point",
				"coordinates":[-102.402223,20.865833]
			}
		},
		{
			"type":"Feature",
			"properties":{
				"title":"Localidad",
				"description":"El Saucillo (El Saucito), 74 habs. (2010)",
				"marker-size":"small",
				"marker-symbol":"building",
				"marker-color":"#fb6a4a",
				"name":"El Saucillo (El Saucito)",
				"id":140080343,
				"p":74,
				"lv":1
			},
			"geometry":{
				"type":"Point",
				"coordinates":[-102.3775,20.6225]
			}
		},
		{
			"type":"Feature",
			"properties":{
				"title":"Localidad",
				"description":"Santa María del Nopal, 428 habs. (2010)",
				"marker-size":"small",
				"marker-symbol":"building",
				"marker-color":"#fb6a4a",
				"name":"Santa María del Nopal",
				"id":140080345,
				"p":428,
				"lv":1
			},
			"geometry":{
				"type":"Point",
				"coordinates":[-102.406389,20.717222]
			}
		},
		{
			"type":"Feature",
			"properties":{
				"title":"Localidad",
				"description":"Sacamecate, 36 habs. (2010)",
				"marker-size":"small",
				"marker-symbol":"building",
				"marker-color":"#fb6a4a",
				"name":"Sacamecate",
				"id":140080346,
				"p":36,
				"lv":1
			},
			"geometry":{
				"type":"Point",
				"coordinates":[-102.38,20.696388]
			}
		},
		{
			"type":"Feature",
			"properties":{
				"title":"Localidad",
				"description":"Palo Cuate, 22 habs. (2010)",
				"marker-size":"small",
				"marker-symbol":"building",
				"marker-color":"#fb6a4a",
				"name":"Palo Cuate",
				"id":140080353,
				"p":22,
				"lv":1
			},
			"geometry":{
				"type":"Point",
				"coordinates":[-102.208056,20.728888]
			}
		},
		{
			"type":"Feature",
			"properties":{
				"title":"Localidad",
				"description":"El Ocote de Enmedio, 17 habs. (2010)",
				"marker-size":"small",
				"marker-symbol":"building",
				"marker-color":"#fb6a4a",
				"name":"El Ocote de Enmedio",
				"id":140080358,
				"p":17,
				"lv":1
			},
			"geometry":{
				"type":"Point",
				"coordinates":[-102.365556,20.679722]
			}
		},
		{
			"type":"Feature",
			"properties":{
				"title":"Localidad",
				"description":"Loma Larga, 12 habs. (2010)",
				"marker-size":"small",
				"marker-symbol":"building",
				"marker-color":"#fb6a4a",
				"name":"Loma Larga",
				"id":140080364,
				"p":12,
				"lv":1
			},
			"geometry":{
				"type":"Point",
				"coordinates":[-102.326945,20.819166]
			}
		},
		{
			"type":"Feature",
			"properties":{
				"title":"Localidad",
				"description":"Cuesta de Edificios, 64 habs. (2010)",
				"marker-size":"small",
				"marker-symbol":"building",
				"marker-color":"#fb6a4a",
				"name":"Cuesta de Edificios",
				"id":140080371,
				"p":64,
				"lv":1
			},
			"geometry":{
				"type":"Point",
				"coordinates":[-102.276667,20.791666]
			}
		},
		{
			"type":"Feature",
			"properties":{
				"title":"Localidad",
				"description":"La Ceja de la Capilla, 110 habs. (2010)",
				"marker-size":"small",
				"marker-symbol":"building",
				"marker-color":"#fb6a4a",
				"name":"La Ceja de la Capilla",
				"id":140080375,
				"p":110,
				"lv":1
			},
			"geometry":{
				"type":"Point",
				"coordinates":[-102.418334,20.735833]
			}
		},
		{
			"type":"Feature",
			"properties":{
				"title":"Localidad",
				"description":"Hacienda del Águila, 1 habs. (2010)",
				"marker-size":"small",
				"marker-symbol":"building",
				"marker-color":"#fb6a4a",
				"name":"Hacienda del Águila",
				"id":140080379,
				"p":1,
				"lv":1
			},
			"geometry":{
				"type":"Point",
				"coordinates":[-102.364723,20.873611]
			}
		},
		{
			"type":"Feature",
			"properties":{
				"title":"Localidad",
				"description":"Águila de Gutiérrez (Águila Chica), 6 habs. (2010)",
				"marker-size":"small",
				"marker-symbol":"building",
				"marker-color":"#fb6a4a",
				"name":"Águila de Gutiérrez (Águila Chica)",
				"id":140080380,
				"p":6,
				"lv":1
			},
			"geometry":{
				"type":"Point",
				"coordinates":[-102.322223,20.85]
			}
		},