{"type":"FeatureCollection","features":[
{"type":"Feature","properties":{"name":"Colonia La Cruz (Ciudad Perdida Loma de la Cruz)","id":141240273,"p":992,"lv":3},"geometry":{"type":"Point","coordinates":[-103.072778,20.605]}},
{"type":"Feature","properties":{"name":"San Nicolás (San Nicolás Acuña)","id":140240017,"p":992,"lv":3},"geometry":{"type":"Point","coordinates":[-103.817778,20.468055]}},
{"type":"Feature","properties":{"name":"Nuevo Miguel Hidalgo","id":140430139,"p":989,"lv":3},"geometry":{"type":"Point","coordinates":[-104.897778,19.360555]}},
{"type":"Feature","properties":{"name":"Agua Caliente","id":140660002,"p":988,"lv":3},"geometry":{"type":"Point","coordinates":[-102.928889,20.3125]}},
{"type":"Feature","properties":{"name":"Ahuacapán","id":140150005,"p":985,"lv":3},"geometry":{"type":"Point","coordinates":[-104.326389,19.678888]}},
{"type":"Feature","properties":{"name":"San José de Gracia","id":140920020,"p":982,"lv":3},"geometry":{"type":"Point","coordinates":[-103.441667,20.095833]}},
{"type":"Feature","properties":{"name":"El Aguacate","id":140220002,"p":981,"lv":3},"geometry":{"type":"Point","coordinates":[-104.642223,19.225]}},
{"type":"Feature","properties":{"name":"La Joya","id":140550003,"p":977,"lv":3},"geometry":{"type":"Point","coordinates":[-103.976389,20.845833]}},
{"type":"Feature","properties":{"name":"El Zapotillo","id":140210020,"p":975,"lv":3},"geometry":{"type":"Point","coordinates":[-104.4425,19.635277]}},
{"type":"Feature","properties":{"name":"San Pedro","id":140070012,"p":970,"lv":3},"geometry":{"type":"Point","coordinates":[-104.061112,20.8175]}},
{"type":"Feature","properties":{"name":"La Cumbre","id":141000039,"p":962,"lv":3},"geometry":{"type":"Point","coordinates":[-105.334723,19.873888]}},
{"type":"Feature","properties":{"name":"Santa Elena","id":140130090,"p":962,"lv":3},"geometry":{"type":"Point","coordinates":[-102.495556,20.468333]}},
{"type":"Feature","properties":{"name":"El Mirador","id":140980131,"p":960,"lv":3},"geometry":{"type":"Point","coordinates":[-103.273056,20.575833]}},
{"type":"Feature","properties":{"name":"Tecomatlán","id":140930316,"p":958,"lv":3},"geometry":{"type":"Point","coordinates":[-102.910278,20.616666]}},
{"type":"Feature","properties":{"name":"Santa María de los Ángeles","id":140810001,"p":957,"lv":3},"geometry":{"type":"Point","coordinates":[-103.223056,22.173333]}},
{"type":"Feature","properties":{"name":"Barranca de Santa Clara","id":141190004,"p":957,"lv":3},"geometry":{"type":"Point","coordinates":[-103.655834,20.255833]}},
{"type":"Feature","properties":{"name":"Los Volcanes","id":140120074,"p":956,"lv":3},"geometry":{"type":"Point","coordinates":[-104.538056,20.323333]}},
{"type":"Feature","properties":{"name":"Infonavit Milpillas","id":140130204,"p":954,"lv":3},"geometry":{"type":"Point","coordinates":[-102.531112,20.524444]}},
{"type":"Feature","properties":{"name":"Teponahuasco","id":140290099,"p":949,"lv":3},"geometry":{"type":"Point","coordinates":[-103.038612,20.907222]}},
{"type":"Feature","properties":{"name":"San Ramón","id":140180037,"p":948,"lv":3},"geometry":{"type":"Point","coordinates":[-102.456667,20.354722]}},
{"type":"Feature","properties":{"name":"Cuyacapan","id":140140008,"p":946,"lv":3},"geometry":{"type":"Point","coordinates":[-103.523612,19.966111]}},
{"type":"Feature","properties":{"name":"San Juan Espanatica (El Pueblito)","id":141080046,"p":941,"lv":3},"geometry":{"type":"Point","coordinates":[-103.403056,19.496111]}},
{"type":"Feature","properties":{"name":"San Gaspar de los Reyes (San Gaspar)","id":140460066,"p":939,"lv":3},"geometry":{"type":"Point","coordinates":[-102.501945,21.291111]}},
{"type":"Feature","properties":{"name":"Bolaños","id":140190001,"p":924,"lv":3},"geometry":{"type":"Point","coordinates":[-103.780556,21.831666]}},
{"type":"Feature","properties":{"name":"Llano Grande","id":141000075,"p":923,"lv":3},"geometry":{"type":"Point","coordinates":[-104.874167,20.037222]}},
{"type":"Feature","properties":{"name":"Santo Tomás","id":140400071,"p":922,"lv":3},"geometry":{"type":"Point","coordinates":[-104.114723,20.994722]}},
{"type":"Feature","properties":{"name":"Ex-Hacienda de Zapotlanejo","id":140510013,"p":918,"lv":3},"geometry":{"type":"Point","coordinates":[-103.167778,20.455555]}},
{"type":"Feature","properties":{"name":"Huejotitlán","id":140910060,"p":918,"lv":3},"geometry":{"type":"Point","coordinates":[-102.637223,21.391111]}},
{"type":"Feature","properties":{"name":"La Purísima","id":140130065,"p":912,"lv":3},"geometry":{"type":"Point","coordinates":[-102.464445,20.605555]}},
{"type":"Feature","properties":{"name":"La Noria","id":140160050,"p":911,"lv":3},"geometry":{"type":"Point","coordinates":[-102.3225,20.374722]}},
{"type":"Feature","properties":{"name":"Unión de Guadalupe","id":140140029,"p":909,"lv":3},"geometry":{"type":"Point","coordinates":[-103.451389,19.911111]}},
{"type":"Feature","properties":{"name":"Plan de los Rodríguez","id":140530215,"p":909,"lv":3},"geometry":{"type":"Point","coordinates":[-101.937778,21.321666]}},
{"type":"Feature","properties":{"name":"El Gobernador","id":140180015,"p":909,"lv":3},"geometry":{"type":"Point","coordinates":[-102.455556,20.389444]}},
{"type":"Feature","properties":{"name":"El Rodeo","id":140790029,"p":908,"lv":3},"geometry":{"type":"Point","coordinates":[-103.436112,19.838888]}},
{"type":"Feature","properties":{"name":"El Pozo Santo (Crucero del Tule)","id":140650066,"p":901,"lv":3},"geometry":{"type":"Point","coordinates":[-103.386112,19.326111]}},
{"type":"Feature","properties":{"name":"Huisquilco (Huiscuilco)","id":141180056,"p":901,"lv":3},"geometry":{"type":"Point","coordinates":[-102.981389,21.135277]}},
{"type":"Feature","properties":{"name":"Francisco Villa","id":140430041,"p":898,"lv":3},"geometry":{"type":"Point","coordinates":[-104.968334,19.385277]}},
{"type":"Feature","properties":{"name":"Fraccionamiento La Calera","id":140730441,"p":896,"lv":3},"geometry":{"type":"Point","coordinates":[-102.337778,21.268888]}},
{"type":"Feature","properties":{"name":"La Calerilla","id":140980003,"p":888,"lv":3},"geometry":{"type":"Point","coordinates":[-103.409723,20.565833]}},
{"type":"Feature","properties":{"name":"Agua Caliente Nueva","id":140430140,"p":888,"lv":3},"geometry":{"type":"Point","coordinates":[-104.8975,19.352777]}},
{"type":"Feature","properties":{"name":"San Francisco","id":140850146,"p":886,"lv":3},"geometry":{"type":"Point","coordinates":[-103.193612,19.715555]}},
{"type":"Feature","properties":{"name":"Mezquitán (San Francisco de Abajo)","id":140150055,"p":885,"lv":3},"geometry":{"type":"Point","coordinates":[-104.337223,19.8225]}},
{"type":"Feature","properties":{"name":"Mismaloya","id":140960009,"p":884,"lv":3},"geometry":{"type":"Point","coordinates":[-103.112223,20.158611]}},
{"type":"Feature","properties":{"name":"Santa Lucía","id":140180038,"p":882,"lv":3},"geometry":{"type":"Point","coordinates":[-102.369167,20.365555]}},
{"type":"Feature","properties":{"name":"San Pedro de Ruiz","id":140180036,"p":879,"lv":3},"geometry":{"type":"Point","coordinates":[-102.571112,20.287777]}},
{"type":"Feature","properties":{"name":"Labor de Solís","id":140060027,"p":879,"lv":3},"geometry":{"type":"Point","coordinates":[-103.986945,20.5675]}},
{"type":"Feature","properties":{"name":"Camichines","id":140240005,"p":873,"lv":3},"geometry":{"type":"Point","coordinates":[-103.800556,20.498611]}},
{"type":"Feature","properties":{"name":"Tateposco (San José Tateposco)","id":140240024,"p":873,"lv":3},"geometry":{"type":"Point","coordinates":[-103.863334,20.436666]}},
{"type":"Feature","properties":{"name":"Cuzalapa","id":140270030,"p":870,"lv":3},"geometry":{"type":"Point","coordinates":[-104.317223,19.4975]}},
{"type":"Feature","properties":{"name":"La Noria (El Mirador)","id":141230027,"p":870,"lv":3},"geometry":{"type":"Point","coordinates":[-102.847223,20.455555]}},
{"type":"Feature","properties":{"name":"El Refugio","id":140970028,"p":869,"lv":3},"geometry":{"type":"Point","coordinates":[-103.288612,20.526944]}},
{"type":"Feature","properties":{"name":"Torrecillas (El Lindero)","id":140530309,"p":868,"lv":3},"geometry":{"type":"Point","coordinates":[-101.965,21.378611]}},
{"type":"Feature","properties":{"name":"Cuesta de Mezcala","id":140660010,"p":866,"lv":3},"geometry":{"type":"Point","coordinates":[-102.993612,20.336944]}},
{"type":"Feature","properties":{"name":"Los Dolores","id":141250064,"p":864,"lv":3},"geometry":{"type":"Point","coordinates":[-102.530556,20.804444]}},
{"type":"Feature","properties":{"name":"Labor de Medina","id":140770010,"p":863,"lv":3},"geometry":{"type":"Point","coordinates":[-103.928612,20.475277]}},
{"type":"Feature","properties":{"name":"Ayuquila","id":140370007,"p":862,"lv":3},"geometry":{"type":"Point","coordinates":[-104.271667,19.84]}},
{"type":"Feature","properties":{"name":"Mascuala","id":140450065,"p":862,"lv":3},"geometry":{"type":"Point","coordinates":[-103.276112,20.768333]}},
{"type":"Feature","properties":{"name":"San Cristóbal de la Barranca","id":140710001,"p":859,"lv":3},"geometry":{"type":"Point","coordinates":[-103.429167,21.044444]}},
{"type":"Feature","properties":{"name":"La Orilla del Agua","id":140530532,"p":858,"lv":3},"geometry":{"type":"Point","coordinates":[-101.9525,21.383888]}},
{"type":"Feature","properties":{"name":"Los Canales","id":140180008,"p":855,"lv":3},"geometry":{"type":"Point","coordinates":[-102.616389,20.406111]}},
{"type":"Feature","properties":{"name":"El Chico","id":140210011,"p":851,"lv":3},"geometry":{"type":"Point","coordinates":[-104.555834,19.565]}},
{"type":"Feature","properties":{"name":"La Mesa (El Fresnito)","id":140230008,"p":851,"lv":3},"geometry":{"type":"Point","coordinates":[-103.516389,19.622222]}},
{"type":"Feature","properties":{"name":"San José de los Pozos","id":140020005,"p":848,"lv":3},"geometry":{"type":"Point","coordinates":[-103.57,20.349722]}},
{"type":"Feature","properties":{"name":"Villa Doctor Gómez (Las Lomas)","id":140490112,"p":847,"lv":3},"geometry":{"type":"Point","coordinates":[-102.66,19.43]}},
{"type":"Feature","properties":{"name":"Chimaltitán","id":140310001,"p":843,"lv":3},"geometry":{"type":"Point","coordinates":[-103.780556,21.778611]}},
{"type":"Feature","properties":{"name":"Las Lagunillas (Lagunillas)","id":140150046,"p":836,"lv":3},"geometry":{"type":"Point","coordinates":[-104.288889,19.716944]}},
{"type":"Feature","properties":{"name":"La Laja","id":140620012,"p":833,"lv":3},"geometry":{"type":"Point","coordinates":[-104.525,20.586388]}},
{"type":"Feature","properties":{"name":"La Troje (Los Nogales)","id":140530310,"p":833,"lv":3},"geometry":{"type":"Point","coordinates":[-101.904445,21.730833]}},
{"type":"Feature","properties":{"name":"Iprovife","id":140180253,"p":832,"lv":3},"geometry":{"type":"Point","coordinates":[-102.555278,20.301666]}},
{"type":"Feature","properties":{"name":"Pueblos de la Barranca (El Maestranzo)","id":141240205,"p":831,"lv":3},"geometry":{"type":"Point","coordinates":[-103.136945,20.585277]}},
{"type":"Feature","properties":{"name":"Los Campos","id":140640009,"p":824,"lv":3},"geometry":{"type":"Point","coordinates":[-101.844445,22.026666]}},
{"type":"Feature","properties":{"name":"Buenavista (San Miguel)","id":140530028,"p":819,"lv":3},"geometry":{"type":"Point","coordinates":[-101.964167,21.390833]}},
{"type":"Feature","properties":{"name":"San Isidro","id":141050044,"p":815,"lv":3},"geometry":{"type":"Point","coordinates":[-102.718056,20.572222]}},
{"type":"Feature","properties":{"name":"La Providencia","id":140180028,"p":806,"lv":3},"geometry":{"type":"Point","coordinates":[-102.629723,20.302222]}},
{"type":"Feature","properties":{"name":"Chipinque de Arriba","id":140530072,"p":805,"lv":3},"geometry":{"type":"Point","coordinates":[-101.906667,21.431944]}},
{"type":"Feature","properties":{"name":"Santa Elena de la Cruz","id":140160087,"p":802,"lv":3},"geometry":{"type":"Point","coordinates":[-102.341112,20.394722]}},
{"type":"Feature","properties":{"name":"Fraccionamiento Acueducto","id":140870620,"p":802,"lv":3},"geometry":{"type":"Point","coordinates":[-103.318056,19.479166]}},
{"type":"Feature","properties":{"name":"Hierba de Matancillas","id":140640071,"p":799,"lv":3},"geometry":{"type":"Point","coordinates":[-101.673334,21.865277]}},
{"type":"Feature","properties":{"name":"San Martín de las Cañas","id":140940138,"p":798,"lv":3},"geometry":{"type":"Point","coordinates":[-103.856667,20.946388]}},
{"type":"Feature","properties":{"name":"Santa Teresa","id":140240021,"p":797,"lv":3},"geometry":{"type":"Point","coordinates":[-103.783056,20.326111]}},
{"type":"Feature","properties":{"name":"Buenavista","id":141140004,"p":794,"lv":3},"geometry":{"type":"Point","coordinates":[-103.746945,20.3375]}},
{"type":"Feature","properties":{"name":"Tenzompa","id":140420047,"p":793,"lv":3},"geometry":{"type":"Point","coordinates":[-103.926667,22.371944]}},
{"type":"Feature","properties":{"name":"Pérula","id":140430146,"p":793,"lv":3},"geometry":{"type":"Point","coordinates":[-105.125834,19.588888]}},
{"type":"Feature","properties":{"name":"Atenquique","id":141080005,"p":790,"lv":3},"geometry":{"type":"Point","coordinates":[-103.438056,19.530277]}},
{"type":"Feature","properties":{"name":"Rancho Contento","id":141200318,"p":789,"lv":3},"geometry":{"type":"Point","coordinates":[-103.4775,20.7125]}},
{"type":"Feature","properties":{"name":"La Estancia de Ayones","id":140070008,"p":789,"lv":3},"geometry":{"type":"Point","coordinates":[-104.0875,20.8825]}},
{"type":"Feature","properties":{"name":"Fraccionamiento Rinconada de los Vázquez","id":140080637,"p":786,"lv":3},"geometry":{"type":"Point","coordinates":[-102.371945,20.713333]}},
{"type":"Feature","properties":{"name":"Mesa de Flores","id":140400043,"p":785,"lv":3},"geometry":{"type":"Point","coordinates":[-104.089445,21.185277]}},
{"type":"Feature","properties":{"name":"Los Freseros (Los Sabinos)","id":140440054,"p":784,"lv":3},"geometry":{"type":"Point","coordinates":[-103.183056,20.422777]}},
{"type":"Feature","properties":{"name":"Verdía","id":141190017,"p":775,"lv":3},"geometry":{"type":"Point","coordinates":[-103.509723,20.158333]}},
{"type":"Feature","properties":{"name":"San Nicolás","id":140060051,"p":773,"lv":3},"geometry":{"type":"Point","coordinates":[-104.11,20.558333]}},
{"type":"Feature","properties":{"name":"San José del Carmen","id":141220037,"p":770,"lv":3},"geometry":{"type":"Point","coordinates":[-103.765,19.463611]}},
{"type":"Feature","properties":{"name":"Apazulco (Miguel Hidalgo Viejo)","id":140430068,"p":769,"lv":3},"geometry":{"type":"Point","coordinates":[-104.878889,19.369722]}},
{"type":"Feature","properties":{"name":"Residencial San Pablo","id":140970848,"p":767,"lv":3},"geometry":{"type":"Point","coordinates":[-103.416667,20.555555]}},
{"type":"Feature","properties":{"name":"La Gloria","id":141000054,"p":767,"lv":3},"geometry":{"type":"Point","coordinates":[-105.368056,19.941944]}},
{"type":"Feature","properties":{"name":"Mesa del Tirador","id":140197777,"p":767,"lv":3},"geometry":{"type":"Point","coordinates":[-104.0666667,21.85138889]}},
{"type":"Feature","properties":{"name":"Tacubaya","id":140530299,"p":764,"lv":3},"geometry":{"type":"Point","coordinates":[-101.961389,21.776944]}},
{"type":"Feature","properties":{"name":"Pinar de la Venta","id":141200313,"p":764,"lv":3},"geometry":{"type":"Point","coordinates":[-103.523612,20.718888]}},
{"type":"Feature","properties":{"name":"Juanacatlán","id":140900014,"p":761,"lv":3},"geometry":{"type":"Point","coordinates":[-104.253889,20.192222]}},
{"type":"Feature","properties":{"name":"Las Cruces","id":140530063,"p":759,"lv":3},"geometry":{"type":"Point","coordinates":[-101.850556,21.225555]}},
{"type":"Feature","properties":{"name":"La Mazata","id":140360025,"p":757,"lv":3},"geometry":{"type":"Point","coordinates":[-104.09,20.878888]}},
{"type":"Feature","properties":{"name":"Fraccionamiento Solidaridad","id":140460301,"p":757,"lv":3},"geometry":{"type":"Point","coordinates":[-102.475,21.173333]}},
{"type":"Feature","properties":{"name":"Las Paredes","id":140150064,"p":755,"lv":3},"geometry":{"type":"Point","coordinates":[-104.250834,19.771388]}},
{"type":"Feature","properties":{"name":"Residencias El Prado (Jardines del Prado)","id":141010193,"p":753,"lv":3},"geometry":{"type":"Point","coordinates":[-103.218889,20.684722]}},
{"type":"Feature","properties":{"name":"Santa Elena (Santa Elena de la Cruz)","id":140990027,"p":750,"lv":3},"geometry":{"type":"Point","coordinates":[-103.87,19.550555]}},
{"type":"Feature","properties":{"name":"San José del Valle","id":140130089,"p":746,"lv":3},"geometry":{"type":"Point","coordinates":[-102.593056,20.470277]}},
{"type":"Feature","properties":{"name":"El Tepec","id":140190102,"p":746,"lv":3},"geometry":{"type":"Point","coordinates":[-103.773889,21.841111]}},
{"type":"Feature","properties":{"name":"Mismaloya","id":140670008,"p":743,"lv":3},"geometry":{"type":"Point","coordinates":[-105.289445,20.530833]}},
{"type":"Feature","properties":{"name":"Cóndiro","id":140180011,"p":738,"lv":3},"geometry":{"type":"Point","coordinates":[-102.548612,20.405]}},
{"type":"Feature","properties":{"name":"Lomas de Santa Anita (Colinas de Santa Anita)","id":140970575,"p":736,"lv":3},"geometry":{"type":"Point","coordinates":[-103.494167,20.500833]}},
{"type":"Feature","properties":{"name":"La Punta","id":140530196,"p":733,"lv":3},"geometry":{"type":"Point","coordinates":[-101.942223,21.811944]}},
{"type":"Feature","properties":{"name":"Chila","id":141230016,"p":730,"lv":3},"geometry":{"type":"Point","coordinates":[-102.970556,20.461388]}},
{"type":"Feature","properties":{"name":"Tasinaxtla (La Cañada)","id":141210025,"p":729,"lv":3},"geometry":{"type":"Point","coordinates":[-103.299167,19.580277]}},
{"type":"Feature","properties":{"name":"Callejones","id":140850020,"p":728,"lv":3},"geometry":{"type":"Point","coordinates":[-103.262778,19.668333]}},
{"type":"Feature","properties":{"name":"Yelapa","id":140200070,"p":727,"lv":3},"geometry":{"type":"Point","coordinates":[-105.446389,20.487777]}},
{"type":"Feature","properties":{"name":"Los Guerrero","id":140770006,"p":724,"lv":3},"geometry":{"type":"Point","coordinates":[-103.897778,20.443333]}},
{"type":"Feature","properties":{"name":"Colonia Pinal Villa","id":140220109,"p":724,"lv":3},"geometry":{"type":"Point","coordinates":[-104.693889,19.238055]}},
{"type":"Feature","properties":{"name":"Epeche Chico (Penche Chico)","id":140590025,"p":724,"lv":3},"geometry":{"type":"Point","coordinates":[-103.019723,19.939166]}},
{"type":"Feature","properties":{"name":"El Maluco","id":140160043,"p":722,"lv":3},"geometry":{"type":"Point","coordinates":[-102.301667,20.46]}},
{"type":"Feature","properties":{"name":"Carrozas","id":141050005,"p":719,"lv":3},"geometry":{"type":"Point","coordinates":[-102.7325,20.483888]}},
{"type":"Feature","properties":{"name":"San Antonio (San Antonio de Padua)","id":140860030,"p":717,"lv":3},"geometry":{"type":"Point","coordinates":[-103.706389,19.966111]}},
{"type":"Feature","properties":{"name":"San Andrés","id":140630026,"p":717,"lv":3},"geometry":{"type":"Point","coordinates":[-102.743334,20.340555]}},
{"type":"Feature","properties":{"name":"La Zapotera","id":140660037,"p":717,"lv":3},"geometry":{"type":"Point","coordinates":[-102.897778,20.306111]}},
{"type":"Feature","properties":{"name":"Cañada de San Ignacio","id":140160082,"p":716,"lv":3},"geometry":{"type":"Point","coordinates":[-102.353334,20.552222]}},
{"type":"Feature","properties":{"name":"Agua Caliente","id":140240002,"p":715,"lv":3},"geometry":{"type":"Point","coordinates":[-103.823334,20.519166]}},
{"type":"Feature","properties":{"name":"El Mirador","id":141180079,"p":708,"lv":3},"geometry":{"type":"Point","coordinates":[-102.871112,21.167222]}},
{"type":"Feature","properties":{"name":"Nuevo Valle (Ex-Hacienda del Valle)","id":140130051,"p":706,"lv":3},"geometry":{"type":"Point","coordinates":[-102.587778,20.470833]}},
{"type":"Feature","properties":{"name":"La Desembocada","id":140670066,"p":706,"lv":3},"geometry":{"type":"Point","coordinates":[-105.154723,20.727777]}},
{"type":"Feature","properties":{"name":"Los Guajes","id":140520014,"p":705,"lv":3},"geometry":{"type":"Point","coordinates":[-104.023612,20.085]}},
{"type":"Feature","properties":{"name":"Ayotitlán","id":140270012,"p":704,"lv":3},"geometry":{"type":"Point","coordinates":[-104.184167,19.469444]}},
{"type":"Feature","properties":{"name":"Las Palmas","id":140130137,"p":702,"lv":3},"geometry":{"type":"Point","coordinates":[-102.484167,20.562222]}},
{"type":"Feature","properties":{"name":"Fraccionamiento Puerta del Sol","id":140440171,"p":701,"lv":3},"geometry":{"type":"Point","coordinates":[-103.237223,20.431111]}},
{"type":"Feature","properties":{"name":"Teocaltitán de Guadalupe","id":140460076,"p":700,"lv":3},"geometry":{"type":"Point","coordinates":[-102.3975,21.143611]}},
{"type":"Feature","properties":{"name":"San Rafael de los Moreno","id":141000143,"p":700,"lv":3},"geometry":{"type":"Point","coordinates":[-105.193612,20.122222]}},
{"type":"Feature","properties":{"name":"Santa María del Oro","id":140560001,"p":697,"lv":3},"geometry":{"type":"Point","coordinates":[-102.908334,19.5875]}},
{"type":"Feature","properties":{"name":"El Refugio (El Maguey)","id":140530127,"p":695,"lv":3},"geometry":{"type":"Point","coordinates":[-101.795278,21.428055]}},
{"type":"Feature","properties":{"name":"General Lucio Blanco (La Mora)","id":140950006,"p":693,"lv":3},"geometry":{"type":"Point","coordinates":[-103.869445,20.685555]}},
{"type":"Feature","properties":{"name":"Los Robles","id":140480118,"p":693,"lv":3},"geometry":{"type":"Point","coordinates":[-102.234445,20.602222]}},
{"type":"Feature","properties":{"name":"La Villita","id":140830018,"p":686,"lv":3},"geometry":{"type":"Point","coordinates":[-103.623334,20.540555]}},
{"type":"Feature","properties":{"name":"Santa Bárbara (Estación Castro)","id":140350252,"p":684,"lv":3},"geometry":{"type":"Point","coordinates":[-102.161389,21.437777]}},
{"type":"Feature","properties":{"name":"Lázaro Cárdenas (La Nancy)","id":141000067,"p":684,"lv":3},"geometry":{"type":"Point","coordinates":[-105.160556,19.83]}},
{"type":"Feature","properties":{"name":"Las Trojes","id":140500016,"p":683,"lv":3},"geometry":{"type":"Point","coordinates":[-103.329167,20.333888]}},
{"type":"Feature","properties":{"name":"Apango","id":141130006,"p":683,"lv":3},"geometry":{"type":"Point","coordinates":[-103.710834,19.781666]}},
{"type":"Feature","properties":{"name":"Los Espinos","id":140860016,"p":682,"lv":3},"geometry":{"type":"Point","coordinates":[-103.736945,19.986944]}},
{"type":"Feature","properties":{"name":"Rancho Viejo del Refugio (Rancho Viejo)","id":140630023,"p":678,"lv":3},"geometry":{"type":"Point","coordinates":[-102.638612,20.451388]}},
{"type":"Feature","properties":{"name":"Tlalcosahua","id":140410022,"p":676,"lv":3},"geometry":{"type":"Point","coordinates":[-103.169167,22.2725]}},
{"type":"Feature","properties":{"name":"San Sebastián del Oeste","id":140800001,"p":672,"lv":3},"geometry":{"type":"Point","coordinates":[-104.851667,20.760833]}},
{"type":"Feature","properties":{"name":"Casa Blanca","id":140660006,"p":669,"lv":3},"geometry":{"type":"Point","coordinates":[-103.037223,20.400833]}},
{"type":"Feature","properties":{"name":"San Antonio","id":141130051,"p":669,"lv":3},"geometry":{"type":"Point","coordinates":[-103.886667,19.795833]}},
{"type":"Feature","properties":{"name":"La Palma (La Angostura)","id":140160053,"p":668,"lv":3},"geometry":{"type":"Point","coordinates":[-102.422778,20.57]}},
{"type":"Feature","properties":{"name":"El Coahuayote (El Arco)","id":141210010,"p":662,"lv":3},"geometry":{"type":"Point","coordinates":[-103.356112,19.610277]}},
{"type":"Feature","properties":{"name":"Los Amiales","id":141010111,"p":662,"lv":3},"geometry":{"type":"Point","coordinates":[-103.230556,20.614166]}},
{"type":"Feature","properties":{"name":"Boca de Tomatlán","id":140670009,"p":661,"lv":3},"geometry":{"type":"Point","coordinates":[-105.314445,20.511666]}},
{"type":"Feature","properties":{"name":"Mirandillas","id":140780117,"p":660,"lv":3},"geometry":{"type":"Point","coordinates":[-102.540834,20.943333]}},
{"type":"Feature","properties":{"name":"La Estancita","id":140070009,"p":656,"lv":3},"geometry":{"type":"Point","coordinates":[-103.998056,20.736944]}},
{"type":"Feature","properties":{"name":"El Zapote (San Miguel del Zapote)","id":140890017,"p":653,"lv":3},"geometry":{"type":"Point","coordinates":[-103.533612,20.133333]}},
{"type":"Feature","properties":{"name":"La Loma (Loma de Enmedio)","id":140930169,"p":652,"lv":3},"geometry":{"type":"Point","coordinates":[-102.739167,20.798055]}},
{"type":"Feature","properties":{"name":"El Portezuelo","id":140060042,"p":649,"lv":3},"geometry":{"type":"Point","coordinates":[-104.045834,20.6]}},
{"type":"Feature","properties":{"name":"San Mateo","id":140430099,"p":647,"lv":3},"geometry":{"type":"Point","coordinates":[-105.085,19.575833]}},
{"type":"Feature","properties":{"name":"El Tule","id":140080311,"p":645,"lv":3},"geometry":{"type":"Point","coordinates":[-102.440834,20.716666]}},
{"type":"Feature","properties":{"name":"Benito Juárez (Catarina Uno)","id":141190005,"p":644,"lv":3},"geometry":{"type":"Point","coordinates":[-103.600556,20.282777]}},
{"type":"Feature","properties":{"name":"Colotitlán","id":140900008,"p":644,"lv":3},"geometry":{"type":"Point","coordinates":[-104.153889,20.093611]}},
{"type":"Feature","properties":{"name":"San Pedro Toxín","id":140990025,"p":644,"lv":3},"geometry":{"type":"Point","coordinates":[-103.967778,19.59]}},
{"type":"Feature","properties":{"name":"San Juan del Monte","id":140290085,"p":642,"lv":3},"geometry":{"type":"Point","coordinates":[-103.126112,20.9175]}},
{"type":"Feature","properties":{"name":"Las Cruces","id":140290027,"p":640,"lv":3},"geometry":{"type":"Point","coordinates":[-103.113889,21.0225]}},
{"type":"Feature","properties":{"name":"Los Cerritos","id":141230011,"p":638,"lv":3},"geometry":{"type":"Point","coordinates":[-102.775556,20.476944]}},
{"type":"Feature","properties":{"name":"Los Fresnos","id":140330035,"p":637,"lv":3},"geometry":{"type":"Point","coordinates":[-102.0775,20.413055]}},
{"type":"Feature","properties":{"name":"Ramblas Chico","id":141050034,"p":634,"lv":3},"geometry":{"type":"Point","coordinates":[-102.809723,20.62]}},
{"type":"Feature","properties":{"name":"El Castillo","id":140330019,"p":633,"lv":3},"geometry":{"type":"Point","coordinates":[-102.216389,20.368333]}},
{"type":"Feature","properties":{"name":"Río Blanco","id":141200193,"p":632,"lv":3},"geometry":{"type":"Point","coordinates":[-103.398889,20.780555]}},
{"type":"Feature","properties":{"name":"El Rosario","id":140910112,"p":632,"lv":3},"geometry":{"type":"Point","coordinates":[-102.745278,21.604444]}},
{"type":"Feature","properties":{"name":"La Loma","id":141240235,"p":629,"lv":3},"geometry":{"type":"Point","coordinates":[-103.112223,20.578055]}},
{"type":"Feature","properties":{"name":"El Paso Real","id":140990018,"p":626,"lv":3},"geometry":{"type":"Point","coordinates":[-103.96,19.604722]}},
{"type":"Feature","properties":{"name":"El Medineño","id":140940077,"p":625,"lv":3},"geometry":{"type":"Point","coordinates":[-103.779167,20.867222]}},
{"type":"Feature","properties":{"name":"Paso de Ganado","id":140850111,"p":624,"lv":3},"geometry":{"type":"Point","coordinates":[-103.208889,19.721388]}},
{"type":"Feature","properties":{"name":"Chalpicote","id":140660043,"p":623,"lv":3},"geometry":{"type":"Point","coordinates":[-102.916112,20.309722]}},
{"type":"Feature","properties":{"name":"La Trinidad","id":141250052,"p":622,"lv":3},"geometry":{"type":"Point","coordinates":[-102.481389,20.675277]}},
{"type":"Feature","properties":{"name":"Jayamitla (Colmenar)","id":140060026,"p":616,"lv":3},"geometry":{"type":"Point","coordinates":[-104.177778,20.589722]}},
{"type":"Feature","properties":{"name":"La Estanzuela","id":140240011,"p":616,"lv":3},"geometry":{"type":"Point","coordinates":[-103.856667,20.478611]}},
{"type":"Feature","properties":{"name":"La Maltaraña (La Palmita)","id":140470003,"p":613,"lv":3},"geometry":{"type":"Point","coordinates":[-102.682778,20.225833]}},
{"type":"Feature","properties":{"name":"Nuevo Israel","id":141010188,"p":611,"lv":3},"geometry":{"type":"Point","coordinates":[-103.266667,20.698333]}},
{"type":"Feature","properties":{"name":"Los Ocotes","id":140840144,"p":609,"lv":3},"geometry":{"type":"Point","coordinates":[-104.849723,20.4225]}},
{"type":"Feature","properties":{"name":"Matamoros Los Hoyos","id":140530132,"p":608,"lv":3},"geometry":{"type":"Point","coordinates":[-102.022778,21.835277]}},
{"type":"Feature","properties":{"name":"Teutlán","id":140990029,"p":606,"lv":3},"geometry":{"type":"Point","coordinates":[-103.911945,19.576111]}},
{"type":"Feature","properties":{"name":"La Arbolada Plus","id":140970838,"p":605,"lv":3},"geometry":{"type":"Point","coordinates":[-103.363889,20.536944]}},
{"type":"Feature","properties":{"name":"Sendero Real","id":140970861,"p":604,"lv":3},"geometry":{"type":"Point","coordinates":[-103.351667,20.528055]}},
{"type":"Feature","properties":{"name":"Cacaluta (La Villita)","id":141190007,"p":604,"lv":3},"geometry":{"type":"Point","coordinates":[-103.483334,20.165833]}},
{"type":"Feature","properties":{"name":"El Cacalote","id":140370009,"p":603,"lv":3},"geometry":{"type":"Point","coordinates":[-104.280834,19.844166]}},
{"type":"Feature","properties":{"name":"Buenos Aires","id":140060010,"p":602,"lv":3},"geometry":{"type":"Point","coordinates":[-104.03,20.581944]}},
{"type":"Feature","properties":{"name":"El Texcalame","id":140060057,"p":601,"lv":3},"geometry":{"type":"Point","coordinates":[-104.071945,20.455555]}},
{"type":"Feature","properties":{"name":"Tacotlán","id":140450127,"p":601,"lv":3},"geometry":{"type":"Point","coordinates":[-103.188334,20.816944]}},
{"type":"Feature","properties":{"name":"La Esperanza (El Ranchito)","id":140290167,"p":601,"lv":3},"geometry":{"type":"Point","coordinates":[-103.021945,20.878888]}},
{"type":"Feature","properties":{"name":"La Estrella","id":140650037,"p":600,"lv":3},"geometry":{"type":"Point","coordinates":[-103.458889,19.220833]}},
{"type":"Feature","properties":{"name":"Santa Rosa [Granja]","id":140980105,"p":599,"lv":3},"geometry":{"type":"Point","coordinates":[-103.373612,20.573611]}},
{"type":"Feature","properties":{"name":"San Joaquín","id":140130082,"p":598,"lv":3},"geometry":{"type":"Point","coordinates":[-102.5,20.4825]}},
{"type":"Feature","properties":{"name":"El Amarillo","id":140950003,"p":596,"lv":3},"geometry":{"type":"Point","coordinates":[-103.897778,20.632777]}},
{"type":"Feature","properties":{"name":"Colonias del Gavilán (Félix Ramos)","id":140920006,"p":596,"lv":3},"geometry":{"type":"Point","coordinates":[-103.392778,20.101666]}},
{"type":"Feature","properties":{"name":"Ojo de Agua de Latillas","id":140930205,"p":594,"lv":3},"geometry":{"type":"Point","coordinates":[-102.695556,20.668611]}},
{"type":"Feature","properties":{"name":"La Venta de Mochitiltic","id":140400085,"p":594,"lv":3},"geometry":{"type":"Point","coordinates":[-104.146945,21.019166]}},
{"type":"Feature","properties":{"name":"Mirandillas","id":140160047,"p":592,"lv":3},"geometry":{"type":"Point","coordinates":[-102.401389,20.506388]}},
{"type":"Feature","properties":{"name":"San Miguel","id":140680119,"p":592,"lv":3},"geometry":{"type":"Point","coordinates":[-104.726389,19.679444]}},
{"type":"Feature","properties":{"name":"Comanja de Corona","id":140530057,"p":592,"lv":3},"geometry":{"type":"Point","coordinates":[-101.713889,21.325555]}},
{"type":"Feature","properties":{"name":"El Rebalsito de Apazulco","id":140430092,"p":589,"lv":3},"geometry":{"type":"Point","coordinates":[-104.886667,19.305555]}},
{"type":"Feature","properties":{"name":"Santa María","id":140240019,"p":588,"lv":3},"geometry":{"type":"Point","coordinates":[-103.851667,20.401388]}},
{"type":"Feature","properties":{"name":"La Purísima","id":140870144,"p":582,"lv":3},"geometry":{"type":"Point","coordinates":[-103.329167,19.491944]}},
{"type":"Feature","properties":{"name":"Las Juntas Y Los Veranos","id":140200037,"p":582,"lv":3},"geometry":{"type":"Point","coordinates":[-105.294723,20.48]}},
{"type":"Feature","properties":{"name":"Las Güeras","id":140350104,"p":576,"lv":3},"geometry":{"type":"Point","coordinates":[-102.109445,21.719444]}},
{"type":"Feature","properties":{"name":"Villa Morelos","id":140570016,"p":576,"lv":3},"geometry":{"type":"Point","coordinates":[-103.147778,20.056388]}},
{"type":"Feature","properties":{"name":"Fraccionamiento La Fortuna","id":140970046,"p":573,"lv":3},"geometry":{"type":"Point","coordinates":[-103.395834,20.484722]}},
{"type":"Feature","properties":{"name":"Corral de Piedra","id":140350050,"p":572,"lv":3},"geometry":{"type":"Point","coordinates":[-102.118056,21.483333]}},
{"type":"Feature","properties":{"name":"Juchitlán","id":140290043,"p":570,"lv":3},"geometry":{"type":"Point","coordinates":[-103.058056,21.042222]}},
{"type":"Feature","properties":{"name":"El Ranchito (San Isidro)","id":140830043,"p":566,"lv":3},"geometry":{"type":"Point","coordinates":[-103.783889,20.601388]}},
{"type":"Feature","properties":{"name":"Coatlancillo","id":141020010,"p":565,"lv":3},"geometry":{"type":"Point","coordinates":[-103.964167,19.892777]}},
{"type":"Feature","properties":{"name":"Coina Grande","id":141050065,"p":562,"lv":3},"geometry":{"type":"Point","coordinates":[-102.742223,20.524722]}},
{"type":"Feature","properties":{"name":"El Sauz","id":141230042,"p":561,"lv":3},"geometry":{"type":"Point","coordinates":[-102.8,20.478333]}},
{"type":"Feature","properties":{"name":"San Antonio de Buenavista","id":140530224,"p":559,"lv":3},"geometry":{"type":"Point","coordinates":[-101.876112,21.494722]}},
{"type":"Feature","properties":{"name":"El Agua Caliente","id":140130003,"p":558,"lv":3},"geometry":{"type":"Point","coordinates":[-102.460278,20.493611]}},
{"type":"Feature","properties":{"name":"San Jerónimo","id":140160079,"p":557,"lv":3},"geometry":{"type":"Point","coordinates":[-102.339723,20.398611]}},
{"type":"Feature","properties":{"name":"San Agustín (Capulines)","id":141050040,"p":557,"lv":3},"geometry":{"type":"Point","coordinates":[-102.716667,20.634166]}},
{"type":"Feature","properties":{"name":"Los Guayabos","id":140180018,"p":557,"lv":3},"geometry":{"type":"Point","coordinates":[-102.597223,20.401388]}},
{"type":"Feature","properties":{"name":"Santiago de Pinos","id":140800111,"p":556,"lv":3},"geometry":{"type":"Point","coordinates":[-104.831667,20.806666]}},
{"type":"Feature","properties":{"name":"Buenos Aires","id":140330014,"p":555,"lv":3},"geometry":{"type":"Point","coordinates":[-102.1775,20.383611]}},
{"type":"Feature","properties":{"name":"Ninguno [Granja]","id":140640025,"p":554,"lv":3},"geometry":{"type":"Point","coordinates":[-101.746667,21.891111]}},
{"type":"Feature","properties":{"name":"El Llano de los Vela","id":140400038,"p":549,"lv":3},"geometry":{"type":"Point","coordinates":[-103.914167,20.999722]}},
{"type":"Feature","properties":{"name":"La Villita","id":140060059,"p":549,"lv":3},"geometry":{"type":"Point","coordinates":[-104.171667,20.586111]}},
{"type":"Feature","properties":{"name":"Sauz de los Márquez","id":140810023,"p":548,"lv":3},"geometry":{"type":"Point","coordinates":[-103.116945,22.111944]}},
{"type":"Feature","properties":{"name":"La Colonia","id":141230014,"p":547,"lv":3},"geometry":{"type":"Point","coordinates":[-102.931667,20.427777]}},
{"type":"Feature","properties":{"name":"El Zancudo","id":140670057,"p":547,"lv":3},"geometry":{"type":"Point","coordinates":[-105.153334,20.779722]}},
{"type":"Feature","properties":{"name":"Ferrería de Tula","id":140860017,"p":547,"lv":3},"geometry":{"type":"Point","coordinates":[-103.73,20.065555]}},
{"type":"Feature","properties":{"name":"Cuautitlán","id":140530067,"p":542,"lv":3},"geometry":{"type":"Point","coordinates":[-101.969167,21.736388]}},
{"type":"Feature","properties":{"name":"Tebelchia (El Roble)","id":140670050,"p":541,"lv":3},"geometry":{"type":"Point","coordinates":[-105.131667,20.861388]}},
{"type":"Feature","properties":{"name":"San José del Rincón (San José de las Burras)","id":141130053,"p":541,"lv":3},"geometry":{"type":"Point","coordinates":[-103.856389,19.766388]}},
{"type":"Feature","properties":{"name":"El Vado","id":141010038,"p":541,"lv":3},"geometry":{"type":"Point","coordinates":[-103.156389,20.608333]}},
{"type":"Feature","properties":{"name":"Los Magueyes (Fraccionamiento El Sereno)","id":140980049,"p":541,"lv":3},"geometry":{"type":"Point","coordinates":[-103.438056,20.570555]}},
{"type":"Feature","properties":{"name":"El Salvador","id":140350225,"p":541,"lv":3},"geometry":{"type":"Point","coordinates":[-102.257223,21.6025]}},
{"type":"Feature","properties":{"name":"San Miguel (San Miguel Huaixtita)","id":140610325,"p":539,"lv":3},"geometry":{"type":"Point","coordinates":[-104.321112,22.070277]}},
{"type":"Feature","properties":{"name":"Mezquite Grande","id":140330048,"p":535,"lv":3},"geometry":{"type":"Point","coordinates":[-102.206389,20.361388]}},
{"type":"Feature","properties":{"name":"Cruz Vieja (Soledad de Cruz Vieja)","id":140970013,"p":534,"lv":3},"geometry":{"type":"Point","coordinates":[-103.573612,20.494444]}},
{"type":"Feature","properties":{"name":"Ipazoltic","id":140770007,"p":533,"lv":3},"geometry":{"type":"Point","coordinates":[-103.9875,20.433333]}},
{"type":"Feature","properties":{"name":"San Antonio de la Garza","id":141090089,"p":532,"lv":3},"geometry":{"type":"Point","coordinates":[-102.094167,21.195]}},
{"type":"Feature","properties":{"name":"El Tepeguaje","id":141070004,"p":532,"lv":3},"geometry":{"type":"Point","coordinates":[-103.211112,20.169444]}},
{"type":"Feature","properties":{"name":"El Chico","id":140270035,"p":531,"lv":3},"geometry":{"type":"Point","coordinates":[-104.286945,19.341388]}},
{"type":"Feature","properties":{"name":"La Milpilla","id":140920015,"p":530,"lv":3},"geometry":{"type":"Point","coordinates":[-103.400834,20.138333]}},
{"type":"Feature","properties":{"name":"Coyamel (El Coyame)","id":140210008,"p":528,"lv":3},"geometry":{"type":"Point","coordinates":[-104.523056,19.498055]}},
{"type":"Feature","properties":{"name":"Llano de los Laureles","id":140200136,"p":526,"lv":3},"geometry":{"type":"Point","coordinates":[-105.313056,20.308888]}},
{"type":"Feature","properties":{"name":"Santa Clara de Zula","id":140630029,"p":524,"lv":3},"geometry":{"type":"Point","coordinates":[-102.718612,20.406666]}},
{"type":"Feature","properties":{"name":"San Simón","id":140550009,"p":524,"lv":3},"geometry":{"type":"Point","coordinates":[-104.008612,20.987777]}},
{"type":"Feature","properties":{"name":"Colonia Cuisillos (Huaxtla de Orendain)","id":140090004,"p":523,"lv":3},"geometry":{"type":"Point","coordinates":[-103.655278,20.724166]}},
{"type":"Feature","properties":{"name":"San Vicente","id":141250075,"p":521,"lv":3},"geometry":{"type":"Point","coordinates":[-102.471667,20.725277]}},
{"type":"Feature","properties":{"name":"El Saucillo de Primavera","id":141090112,"p":521,"lv":3},"geometry":{"type":"Point","coordinates":[-101.794445,21.198888]}},
{"type":"Feature","properties":{"name":"Cucarachas","id":140130023,"p":519,"lv":3},"geometry":{"type":"Point","coordinates":[-102.558889,20.482777]}},
{"type":"Feature","properties":{"name":"Los Colonos","id":140860140,"p":516,"lv":3},"geometry":{"type":"Point","coordinates":[-103.773889,19.943055]}},
{"type":"Feature","properties":{"name":"Tepizuac","id":140310069,"p":516,"lv":3},"geometry":{"type":"Point","coordinates":[-103.639167,21.625]}},
{"type":"Feature","properties":{"name":"San José Residencial","id":140970849,"p":513,"lv":3},"geometry":{"type":"Point","coordinates":[-103.358056,20.545555]}},
{"type":"Feature","properties":{"name":"La Puerta de Guamúchil","id":140180029,"p":509,"lv":3},"geometry":{"type":"Point","coordinates":[-102.542223,20.326944]}},
{"type":"Feature","properties":{"name":"Pedrito [Estación]","id":141090071,"p":509,"lv":3},"geometry":{"type":"Point","coordinates":[-101.913889,21.134166]}},
{"type":"Feature","properties":{"name":"José de Jesús Aguirre","id":140910160,"p":507,"lv":3},"geometry":{"type":"Point","coordinates":[-102.471389,21.521666]}},
{"type":"Feature","properties":{"name":"Tepantla","id":140170111,"p":507,"lv":3},"geometry":{"type":"Point","coordinates":[-104.328612,20.187222]}},
{"type":"Feature","properties":{"name":"Agua Escondida","id":141240007,"p":505,"lv":3},"geometry":{"type":"Point","coordinates":[-103.085,20.508888]}},
{"type":"Feature","properties":{"name":"Paso de Piedra","id":141120033,"p":504,"lv":3},"geometry":{"type":"Point","coordinates":[-102.951389,19.977222]}},
{"type":"Feature","properties":{"name":"Cofradía de Duendes","id":140880012,"p":504,"lv":3},"geometry":{"type":"Point","coordinates":[-104.004723,20.234722]}},
{"type":"Feature","properties":{"name":"El Mirto","id":140180024,"p":503,"lv":3},"geometry":{"type":"Point","coordinates":[-102.545,20.356111]}},
{"type":"Feature","properties":{"name":"El Volantín","id":140960015,"p":502,"lv":3},"geometry":{"type":"Point","coordinates":[-103.104167,20.054722]}},
{"type":"Feature","properties":{"name":"Rancho Nuevo (El Murciélago)","id":140490227,"p":501,"lv":3},"geometry":{"type":"Point","coordinates":[-102.705,19.309722]}},
{"type":"Feature","properties":{"name":"El Tecuán","id":141140009,"p":500,"lv":3},"geometry":{"type":"Point","coordinates":[-103.730834,20.313888]}}
]}